[{"postal_code": 1945, "postal_code_5": "1945", "city": "Schwarzbach", "state": "Brandenburg", "district": "Landkreis Oberspreewald-Lausitz", "lat": 51.45, "long": 13.9333}, {"postal_code": 1945, "postal_code_5": "1945", "city": "Hermsdorf", "state": "Brandenburg", "district": "Landkreis Oberspreewald-Lausitz", "lat": 51.4055, "long": 13.8937}, {"postal_code": 1945, "postal_code_5": "1945", "city": "Ruhland", "state": "Brandenburg", "district": "Landkreis Oberspreewald-Lausitz", "lat": 51.4576, "long": 13.8664}, {"postal_code": 1945, "postal_code_5": "1945", "city": "Hohenbocka", "state": "Brandenburg", "district": "Landkreis Oberspreewald-Lausitz", "lat": 51.431, "long": 14.0098}, {"postal_code": 1945, "postal_code_5": "1945", "city": "Guteborn", "state": "Brandenburg", "district": "Landkreis Oberspreewald-Lausitz", "lat": 51.4167, "long": 13.9333}, {"postal_code": 1945, "postal_code_5": "1945", "city": "Kroppen", "state": "Brandenburg", "district": "Landkreis Oberspreewald-Lausitz", "lat": 51.3833, "long": 13.8}, {"postal_code": 1945, "postal_code_5": "1945", "city": "Tettau", "state": "Brandenburg", "district": "Landkreis Oberspreewald-Lausitz", "lat": 51.4333, "long": 13.7333}, {"postal_code": 1945, "postal_code_5": "1945", "city": "Lindenau", "state": "Brandenburg", "district": "Landkreis Oberspreewald-Lausitz", "lat": 51.4, "long": 13.7333}, {"postal_code": 1945, "postal_code_5": "1945", "city": "Gr\u00fcnewald", "state": "Brandenburg", "district": "Landkreis Oberspreewald-Lausitz", "lat": 51.4, "long": 14.0}, {"postal_code": 1968, "postal_code_5": "1968", "city": "Schipkau", "state": "Brandenburg", "district": "Landkreis Oberspreewald-Lausitz", "lat": 51.5456, "long": 13.9121}, {"postal_code": 1968, "postal_code_5": "1968", "city": "Schipkau H\u00f6rlitz", "state": "Brandenburg", "district": "Landkreis Oberspreewald-Lausitz", "lat": 51.5299, "long": 13.9508}, {"postal_code": 1968, "postal_code_5": "1968", "city": "Senftenberg", "state": "Brandenburg", "district": "Landkreis Oberspreewald-Lausitz", "lat": 51.5252, "long": 14.0016}, {"postal_code": 1979, "postal_code_5": "1979", "city": "Lauchhammer", "state": "Brandenburg", "district": "Landkreis Oberspreewald-Lausitz", "lat": 51.4881, "long": 13.7662}, {"postal_code": 1983, "postal_code_5": "1983", "city": "Gro\u00dfr\u00e4schen", "state": "Brandenburg", "district": "Landkreis Oberspreewald-Lausitz", "lat": 51.5876, "long": 14.0109}, {"postal_code": 1983, "postal_code_5": "1983", "city": "Neu-Seeland", "state": "Brandenburg", "district": "Landkreis Oberspreewald-Lausitz", "lat": 51.6214, "long": 14.1309}, {"postal_code": 1987, "postal_code_5": "1987", "city": "Schwarzheide", "state": "Brandenburg", "district": "Landkreis Oberspreewald-Lausitz", "lat": 51.4767, "long": 13.8556}, {"postal_code": 1990, "postal_code_5": "1990", "city": "Frauendorf", "state": "Brandenburg", "district": "Landkreis Oberspreewald-Lausitz", "lat": 51.4148, "long": 13.7696}, {"postal_code": 1990, "postal_code_5": "1990", "city": "Gro\u00dfkmehlen", "state": "Brandenburg", "district": "Landkreis Oberspreewald-Lausitz", "lat": 51.379, "long": 13.725}, {"postal_code": 1990, "postal_code_5": "1990", "city": "Ortrand", "state": "Brandenburg", "district": "Landkreis Oberspreewald-Lausitz", "lat": 51.375, "long": 13.7598}, {"postal_code": 1993, "postal_code_5": "1993", "city": "Schipkau Schipkau", "state": "Brandenburg", "district": "Landkreis Oberspreewald-Lausitz", "lat": 51.5101, "long": 13.8981}, {"postal_code": 1993, "postal_code_5": "1993", "city": "Schipkau", "state": "Brandenburg", "district": "Landkreis Oberspreewald-Lausitz", "lat": 51.5456, "long": 13.9121}, {"postal_code": 1994, "postal_code_5": "1994", "city": "Schipkau Annah\u00fctte, Annah\u00fctte-Siedlung", "state": "Brandenburg", "district": "Landkreis Oberspreewald-Lausitz", "lat": 51.5623, "long": 13.8742}, {"postal_code": 1994, "postal_code_5": "1994", "city": "Schipkau", "state": "Brandenburg", "district": "Landkreis Oberspreewald-Lausitz", "lat": 51.5456, "long": 13.9121}, {"postal_code": 1994, "postal_code_5": "1994", "city": "Schipkau Meuro", "state": "Brandenburg", "district": "Landkreis Oberspreewald-Lausitz", "lat": 51.5504, "long": 13.9244}, {"postal_code": 1994, "postal_code_5": "1994", "city": "Schipkau Annah\u00fctte", "state": "Brandenburg", "district": "Landkreis Oberspreewald-Lausitz", "lat": 51.5614, "long": 13.882}, {"postal_code": 1994, "postal_code_5": "1994", "city": "Schipkau Drochow", "state": "Brandenburg", "district": "Landkreis Oberspreewald-Lausitz", "lat": 51.5693, "long": 13.9237}, {"postal_code": 1994, "postal_code_5": "1994", "city": "Schipkau Annah\u00fctte, Karl-Marx-Siedlung", "state": "Brandenburg", "district": "Landkreis Oberspreewald-Lausitz", "lat": 51.5641, "long": 13.8692}, {"postal_code": 1994, "postal_code_5": "1994", "city": "Schipkau Annah\u00fctte, Annah\u00fctte", "state": "Brandenburg", "district": "Landkreis Oberspreewald-Lausitz", "lat": 51.5632, "long": 13.8955}, {"postal_code": 1994, "postal_code_5": "1994", "city": "Schipkau Annah\u00fctte, Herrnnm\u00fchle", "state": "Brandenburg", "district": "Landkreis Oberspreewald-Lausitz", "lat": 51.5558, "long": 13.8891}, {"postal_code": 1996, "postal_code_5": "1996", "city": "Hosena", "state": "Brandenburg", "district": "Landkreis Oberspreewald-Lausitz", "lat": 51.4547, "long": 14.0251}, {"postal_code": 1998, "postal_code_5": "1998", "city": "Schipkau Meuro", "state": "Brandenburg", "district": "Landkreis Oberspreewald-Lausitz", "lat": 51.5504, "long": 13.9244}, {"postal_code": 1998, "postal_code_5": "1998", "city": "Schipkau", "state": "Brandenburg", "district": "Landkreis Oberspreewald-Lausitz", "lat": 51.5456, "long": 13.9121}, {"postal_code": 1998, "postal_code_5": "1998", "city": "Schipkau Klettwitz", "state": "Brandenburg", "district": "Landkreis Oberspreewald-Lausitz", "lat": 51.5422, "long": 13.8994}, {"postal_code": 3042, "postal_code_5": "3042", "city": "Cottbus", "state": "Brandenburg", "district": "Kreisfreie Stadt Cottbus", "lat": 51.7612, "long": 14.3544}, {"postal_code": 3044, "postal_code_5": "3044", "city": "Cottbus", "state": "Brandenburg", "district": "Kreisfreie Stadt Cottbus", "lat": 51.7754, "long": 14.3374}, {"postal_code": 3046, "postal_code_5": "3046", "city": "Cottbus", "state": "Brandenburg", "district": "Kreisfreie Stadt Cottbus", "lat": 51.756, "long": 14.3197}, {"postal_code": 3048, "postal_code_5": "3048", "city": "Cottbus", "state": "Brandenburg", "district": "Kreisfreie Stadt Cottbus", "lat": 51.7403, "long": 14.3198}, {"postal_code": 3050, "postal_code_5": "3050", "city": "Cottbus", "state": "Brandenburg", "district": "Kreisfreie Stadt Cottbus", "lat": 51.7324, "long": 14.3347}, {"postal_code": 3051, "postal_code_5": "3051", "city": "Cottbus", "state": "Brandenburg", "district": "Kreisfreie Stadt Cottbus", "lat": 51.7667, "long": 14.3333}, {"postal_code": 3052, "postal_code_5": "3052", "city": "Cottbus", "state": "Brandenburg", "district": "Kreisfreie Stadt Cottbus", "lat": 51.7667, "long": 14.3333}, {"postal_code": 3053, "postal_code_5": "3053", "city": "Cottbus", "state": "Brandenburg", "district": "Kreisfreie Stadt Cottbus", "lat": 51.7667, "long": 14.3333}, {"postal_code": 3054, "postal_code_5": "3054", "city": "Cottbus", "state": "Brandenburg", "district": "Kreisfreie Stadt Cottbus", "lat": 51.7667, "long": 14.3333}, {"postal_code": 3055, "postal_code_5": "3055", "city": "Cottbus", "state": "Brandenburg", "district": "Kreisfreie Stadt Cottbus", "lat": 51.7667, "long": 14.3333}, {"postal_code": 3058, "postal_code_5": "3058", "city": "Kiekebusch", "state": "Brandenburg", "district": "Kreisfreie Stadt Cottbus", "lat": 51.7235, "long": 14.3631}, {"postal_code": 3058, "postal_code_5": "3058", "city": "Sergen", "state": "Brandenburg", "district": "Landkreis Spree-Nei\u00dfe", "lat": 51.7023, "long": 14.5025}, {"postal_code": 3058, "postal_code_5": "3058", "city": "Kathlow", "state": "Brandenburg", "district": "Landkreis Spree-Nei\u00dfe", "lat": 51.7252, "long": 14.4839}, {"postal_code": 3058, "postal_code_5": "3058", "city": "Gro\u00df D\u00f6bbern", "state": "Brandenburg", "district": "Landkreis Spree-Nei\u00dfe", "lat": 51.6515, "long": 14.3298}, {"postal_code": 3058, "postal_code_5": "3058", "city": "Gro\u00df Gaglow", "state": "Brandenburg", "district": "Kreisfreie Stadt Cottbus", "lat": 51.7139, "long": 14.3248}, {"postal_code": 3058, "postal_code_5": "3058", "city": "Neuhausen", "state": "Brandenburg", "district": "Landkreis Spree-Nei\u00dfe", "lat": 51.6788, "long": 14.4163}, {"postal_code": 3058, "postal_code_5": "3058", "city": "Klein D\u00f6bbern", "state": "Brandenburg", "district": "Landkreis Spree-Nei\u00dfe", "lat": 51.6682, "long": 14.345}, {"postal_code": 3058, "postal_code_5": "3058", "city": "Laubsdorf", "state": "Brandenburg", "district": "Landkreis Spree-Nei\u00dfe", "lat": 51.6744, "long": 14.442}, {"postal_code": 3058, "postal_code_5": "3058", "city": "Gablenz", "state": "Brandenburg", "district": "Landkreis Spree-Nei\u00dfe", "lat": 51.6865, "long": 14.5094}, {"postal_code": 3058, "postal_code_5": "3058", "city": "Gro\u00df O\u00dfnig", "state": "Brandenburg", "district": "Landkreis Spree-Nei\u00dfe", "lat": 51.6783, "long": 14.3592}, {"postal_code": 3058, "postal_code_5": "3058", "city": "Roggosen", "state": "Brandenburg", "district": "Landkreis Spree-Nei\u00dfe", "lat": 51.7043, "long": 14.4614}, {"postal_code": 3058, "postal_code_5": "3058", "city": "Komptendorf", "state": "Brandenburg", "district": "Landkreis Spree-Nei\u00dfe", "lat": 51.6846, "long": 14.4727}, {"postal_code": 3058, "postal_code_5": "3058", "city": "Haasow", "state": "Brandenburg", "district": "Landkreis Spree-Nei\u00dfe", "lat": 51.7426, "long": 14.4209}, {"postal_code": 3058, "postal_code_5": "3058", "city": "Frauendorf", "state": "Brandenburg", "district": "Landkreis Spree-Nei\u00dfe", "lat": 51.7007, "long": 14.3878}, {"postal_code": 3058, "postal_code_5": "3058", "city": "Koppatz", "state": "Brandenburg", "district": "Landkreis Spree-Nei\u00dfe", "lat": 51.6962, "long": 14.4266}, {"postal_code": 3058, "postal_code_5": "3058", "city": "Gallinchen", "state": "Brandenburg", "district": "Kreisfreie Stadt Cottbus", "lat": 51.711, "long": 14.3539}, {"postal_code": 3096, "postal_code_5": "3096", "city": "Briesen", "state": "Brandenburg", "district": "Landkreis Spree-Nei\u00dfe", "lat": 51.8155, "long": 14.2442}, {"postal_code": 3096, "postal_code_5": "3096", "city": "Schmogrow-Fehrow", "state": "Brandenburg", "district": "Landkreis Spree-Nei\u00dfe", "lat": 51.85, "long": 14.2333}, {"postal_code": 3096, "postal_code_5": "3096", "city": "Werben", "state": "Brandenburg", "district": "Landkreis Spree-Nei\u00dfe", "lat": 51.8167, "long": 14.1833}, {"postal_code": 3096, "postal_code_5": "3096", "city": "Dissen-Striesow", "state": "Brandenburg", "district": "Landkreis Spree-Nei\u00dfe", "lat": 51.825, "long": 14.2833}, {"postal_code": 3096, "postal_code_5": "3096", "city": "Guhrow", "state": "Brandenburg", "district": "Landkreis Spree-Nei\u00dfe", "lat": 51.812, "long": 14.2294}, {"postal_code": 3096, "postal_code_5": "3096", "city": "Burg (Spreewald)", "state": "Brandenburg", "district": "Landkreis Spree-Nei\u00dfe", "lat": 51.8333, "long": 14.15}, {"postal_code": 3099, "postal_code_5": "3099", "city": "Kolkwitz", "state": "Brandenburg", "district": "Landkreis Spree-Nei\u00dfe", "lat": 51.75, "long": 14.25}, {"postal_code": 3103, "postal_code_5": "3103", "city": "Neupetershain", "state": "Brandenburg", "district": "Landkreis Oberspreewald-Lausitz", "lat": 51.608, "long": 14.1651}, {"postal_code": 3103, "postal_code_5": "3103", "city": "Neu-Seeland", "state": "Brandenburg", "district": "Landkreis Oberspreewald-Lausitz", "lat": 51.6214, "long": 14.1309}, {"postal_code": 3116, "postal_code_5": "3116", "city": "Drebkau", "state": "Brandenburg", "district": "Landkreis Spree-Nei\u00dfe", "lat": 51.6541, "long": 14.2232}, {"postal_code": 3119, "postal_code_5": "3119", "city": "Welzow", "state": "Brandenburg", "district": "Landkreis Spree-Nei\u00dfe", "lat": 51.5838, "long": 14.1708}, {"postal_code": 3130, "postal_code_5": "3130", "city": "Lieskau", "state": "Brandenburg", "district": "Landkreis Spree-Nei\u00dfe", "lat": 51.5683, "long": 14.5271}, {"postal_code": 3130, "postal_code_5": "3130", "city": "Gro\u00df Luja", "state": "Brandenburg", "district": "Landkreis Spree-Nei\u00dfe", "lat": 51.5978, "long": 14.4467}, {"postal_code": 3130, "postal_code_5": "3130", "city": "Bagenz", "state": "Brandenburg", "district": "Landkreis Spree-Nei\u00dfe", "lat": 51.6448, "long": 14.4332}, {"postal_code": 3130, "postal_code_5": "3130", "city": "T\u00fcrkendorf", "state": "Brandenburg", "district": "Landkreis Spree-Nei\u00dfe", "lat": 51.591, "long": 14.4581}, {"postal_code": 3130, "postal_code_5": "3130", "city": "Drieschnitz-Kahsel", "state": "Brandenburg", "district": "Landkreis Spree-Nei\u00dfe", "lat": 51.6667, "long": 14.475}, {"postal_code": 3130, "postal_code_5": "3130", "city": "Graustein", "state": "Brandenburg", "district": "Landkreis Spree-Nei\u00dfe", "lat": 51.5729, "long": 14.4732}, {"postal_code": 3130, "postal_code_5": "3130", "city": "Proschim", "state": "Brandenburg", "district": "Landkreis Spree-Nei\u00dfe", "lat": 51.5514, "long": 14.1884}, {"postal_code": 3130, "postal_code_5": "3130", "city": "Spremberg", "state": "Brandenburg", "district": "Landkreis Spree-Nei\u00dfe", "lat": 51.5696, "long": 14.3739}, {"postal_code": 3130, "postal_code_5": "3130", "city": "Wolfshain", "state": "Brandenburg", "district": "Landkreis Spree-Nei\u00dfe", "lat": 51.5799, "long": 14.589}, {"postal_code": 3130, "postal_code_5": "3130", "city": "Reuthen", "state": "Brandenburg", "district": "Landkreis Spree-Nei\u00dfe", "lat": 51.5906, "long": 14.5266}, {"postal_code": 3130, "postal_code_5": "3130", "city": "Haidem\u00fchl", "state": "Brandenburg", "district": "Landkreis Spree-Nei\u00dfe", "lat": 51.5518, "long": 14.2219}, {"postal_code": 3130, "postal_code_5": "3130", "city": "Tschernitz", "state": "Brandenburg", "district": "Landkreis Spree-Nei\u00dfe", "lat": 51.5833, "long": 14.6167}, {"postal_code": 3130, "postal_code_5": "3130", "city": "Hornow-Wadelsdorf", "state": "Brandenburg", "district": "Landkreis Spree-Nei\u00dfe", "lat": 51.625, "long": 14.4917}, {"postal_code": 3130, "postal_code_5": "3130", "city": "J\u00e4mlitz-Klein D\u00fcben", "state": "Brandenburg", "district": "Landkreis Spree-Nei\u00dfe", "lat": 51.5667, "long": 14.6417}, {"postal_code": 3130, "postal_code_5": "3130", "city": "Felixsee", "state": "Brandenburg", "district": "Landkreis Spree-Nei\u00dfe", "lat": 51.6083, "long": 14.5208}, {"postal_code": 3139, "postal_code_5": "3139", "city": "Terpe", "state": "Brandenburg", "district": "Landkreis Spree-Nei\u00dfe", "lat": 51.5667, "long": 14.3667}, {"postal_code": 3149, "postal_code_5": "3149", "city": "Forst (Lausitz)", "state": "Brandenburg", "district": "Landkreis Spree-Nei\u00dfe", "lat": 51.7302, "long": 14.598}, {"postal_code": 3149, "postal_code_5": "3149", "city": "Wiesengrund", "state": "Brandenburg", "district": "Landkreis Spree-Nei\u00dfe", "lat": 51.6967, "long": 14.5533}, {"postal_code": 3149, "postal_code_5": "3149", "city": "Gro\u00df Schacksdorf-Simmersdorf", "state": "Brandenburg", "district": "Landkreis Spree-Nei\u00dfe", "lat": 51.7, "long": 14.625}, {"postal_code": 3159, "postal_code_5": "3159", "city": "D\u00f6bern", "state": "Brandenburg", "district": "Landkreis Spree-Nei\u00dfe", "lat": 51.6159, "long": 14.5981}, {"postal_code": 3159, "postal_code_5": "3159", "city": "Wiesengrund", "state": "Brandenburg", "district": "Landkreis Spree-Nei\u00dfe", "lat": 51.6967, "long": 14.5533}, {"postal_code": 3159, "postal_code_5": "3159", "city": "Nei\u00dfe-Malxetal", "state": "Brandenburg", "district": "Landkreis Spree-Nei\u00dfe", "lat": 51.6433, "long": 14.63}, {"postal_code": 3172, "postal_code_5": "3172", "city": "Guben", "state": "Brandenburg", "district": "Landkreis Spree-Nei\u00dfe", "lat": 51.9499, "long": 14.7145}, {"postal_code": 3172, "postal_code_5": "3172", "city": "Grie\u00dfen", "state": "Brandenburg", "district": "Landkreis Spree-Nei\u00dfe", "lat": 51.8492, "long": 14.5924}, {"postal_code": 3172, "postal_code_5": "3172", "city": "Grabko", "state": "Brandenburg", "district": "Landkreis Spree-Nei\u00dfe", "lat": 51.9099, "long": 14.5756}, {"postal_code": 3172, "postal_code_5": "3172", "city": "Gastrose-Kerkwitz", "state": "Brandenburg", "district": "Landkreis Spree-Nei\u00dfe", "lat": 51.9, "long": 14.65}, {"postal_code": 3172, "postal_code_5": "3172", "city": "Atterwasch", "state": "Brandenburg", "district": "Landkreis Spree-Nei\u00dfe", "lat": 51.9342, "long": 14.6255}, {"postal_code": 3172, "postal_code_5": "3172", "city": "Pinnow-Heideland", "state": "Brandenburg", "district": "Landkreis Spree-Nei\u00dfe", "lat": 51.9833, "long": 14.5333}, {"postal_code": 3172, "postal_code_5": "3172", "city": "B\u00e4renklau", "state": "Brandenburg", "district": "Landkreis Spree-Nei\u00dfe", "lat": 51.9383, "long": 14.5667}, {"postal_code": 3172, "postal_code_5": "3172", "city": "Lutzketal", "state": "Brandenburg", "district": "Landkreis Spree-Nei\u00dfe", "lat": 51.9833, "long": 14.6238}, {"postal_code": 3185, "postal_code_5": "3185", "city": "Heinersbr\u00fcck", "state": "Brandenburg", "district": "Landkreis Spree-Nei\u00dfe", "lat": 51.8199, "long": 14.5074}, {"postal_code": 3185, "postal_code_5": "3185", "city": "Gr\u00f6tsch", "state": "Brandenburg", "district": "Landkreis Spree-Nei\u00dfe", "lat": 51.7932, "long": 14.5096}, {"postal_code": 3185, "postal_code_5": "3185", "city": "Drehnow", "state": "Brandenburg", "district": "Landkreis Spree-Nei\u00dfe", "lat": 51.8667, "long": 14.3667}, {"postal_code": 3185, "postal_code_5": "3185", "city": "Peitz", "state": "Brandenburg", "district": "Landkreis Spree-Nei\u00dfe", "lat": 51.8584, "long": 14.4114}, {"postal_code": 3185, "postal_code_5": "3185", "city": "Drachhausen", "state": "Brandenburg", "district": "Landkreis Spree-Nei\u00dfe", "lat": 51.8903, "long": 14.3164}, {"postal_code": 3185, "postal_code_5": "3185", "city": "Tauer", "state": "Brandenburg", "district": "Landkreis Spree-Nei\u00dfe", "lat": 51.9, "long": 14.45}, {"postal_code": 3185, "postal_code_5": "3185", "city": "Turnow-Preilack", "state": "Brandenburg", "district": "Landkreis Spree-Nei\u00dfe", "lat": 51.875, "long": 14.4083}, {"postal_code": 3185, "postal_code_5": "3185", "city": "Teichland", "state": "Brandenburg", "district": "Landkreis Spree-Nei\u00dfe", "lat": 51.8056, "long": 14.4444}, {"postal_code": 3197, "postal_code_5": "3197", "city": "J\u00e4nschwalde", "state": "Brandenburg", "district": "Landkreis Spree-Nei\u00dfe", "lat": 51.8607, "long": 14.4981}, {"postal_code": 3197, "postal_code_5": "3197", "city": "Drewitz", "state": "Brandenburg", "district": "Landkreis Spree-Nei\u00dfe", "lat": 51.8966, "long": 14.5103}, {"postal_code": 3202, "postal_code_5": "3202", "city": "Luckow-Petershagen", "state": "Brandenburg", "district": "Landkreis Uckermark", "lat": 53.2435, "long": 14.2573}, {"postal_code": 3205, "postal_code_5": "3205", "city": "Mlode", "state": "Brandenburg", "district": "Landkreis Oberspreewald-Lausitz", "lat": 51.7746, "long": 13.9558}, {"postal_code": 3205, "postal_code_5": "3205", "city": "Laasow", "state": "Brandenburg", "district": "Landkreis Oberspreewald-Lausitz", "lat": 51.7134, "long": 14.0875}, {"postal_code": 3205, "postal_code_5": "3205", "city": "Calau", "state": "Brandenburg", "district": "Landkreis Oberspreewald-Lausitz", "lat": 51.744, "long": 13.9533}, {"postal_code": 3205, "postal_code_5": "3205", "city": "Kemmen", "state": "Brandenburg", "district": "Landkreis Oberspreewald-Lausitz", "lat": 51.7335, "long": 13.9118}, {"postal_code": 3205, "postal_code_5": "3205", "city": "Sa\u00dfleben", "state": "Brandenburg", "district": "Landkreis Oberspreewald-Lausitz", "lat": 51.7591, "long": 13.9865}, {"postal_code": 3205, "postal_code_5": "3205", "city": "Bolschwitz", "state": "Brandenburg", "district": "Landkreis Oberspreewald-Lausitz", "lat": 51.7485, "long": 14.0293}, {"postal_code": 3205, "postal_code_5": "3205", "city": "Lipten", "state": "Brandenburg", "district": "Landkreis Oberspreewald-Lausitz", "lat": 51.6463, "long": 13.9271}, {"postal_code": 3205, "postal_code_5": "3205", "city": "Werchow", "state": "Brandenburg", "district": "Landkreis Oberspreewald-Lausitz", "lat": 51.7255, "long": 13.9555}, {"postal_code": 3205, "postal_code_5": "3205", "city": "Ogrosen", "state": "Brandenburg", "district": "Landkreis Oberspreewald-Lausitz", "lat": 51.7127, "long": 14.0422}, {"postal_code": 3205, "postal_code_5": "3205", "city": "Lug", "state": "Brandenburg", "district": "Landkreis Oberspreewald-Lausitz", "lat": 51.6303, "long": 13.9296}, {"postal_code": 3205, "postal_code_5": "3205", "city": "Missen", "state": "Brandenburg", "district": "Landkreis Oberspreewald-Lausitz", "lat": 51.7274, "long": 14.0498}, {"postal_code": 3205, "postal_code_5": "3205", "city": "Gro\u00df-Meh\u00dfow", "state": "Brandenburg", "district": "Landkreis Oberspreewald-Lausitz", "lat": 51.7333, "long": 13.8167}, {"postal_code": 3205, "postal_code_5": "3205", "city": "Bronkow", "state": "Brandenburg", "district": "Landkreis Oberspreewald-Lausitz", "lat": 51.6667, "long": 13.9167}, {"postal_code": 3205, "postal_code_5": "3205", "city": "Luckaitztal", "state": "Brandenburg", "district": "Landkreis Oberspreewald-Lausitz", "lat": 51.6833, "long": 14.0}, {"postal_code": 3205, "postal_code_5": "3205", "city": "Bischdorf", "state": "Brandenburg", "district": "Landkreis Oberspreewald-Lausitz", "lat": 51.7989, "long": 13.9698}, {"postal_code": 3222, "postal_code_5": "3222", "city": "L\u00fcbbenau/Spreewald", "state": "Brandenburg", "district": "Landkreis Oberspreewald-Lausitz", "lat": 51.8626, "long": 13.9613}, {"postal_code": 3222, "postal_code_5": "3222", "city": "Ragow", "state": "Brandenburg", "district": "Landkreis Oberspreewald-Lausitz", "lat": 51.8875, "long": 13.902}, {"postal_code": 3222, "postal_code_5": "3222", "city": "Boblitz", "state": "Brandenburg", "district": "Landkreis Oberspreewald-Lausitz", "lat": 51.8406, "long": 13.9827}, {"postal_code": 3222, "postal_code_5": "3222", "city": "Gro\u00df Beuchow", "state": "Brandenburg", "district": "Landkreis Oberspreewald-Lausitz", "lat": 51.85, "long": 13.9031}, {"postal_code": 3222, "postal_code_5": "3222", "city": "Klein Radden", "state": "Brandenburg", "district": "Landkreis Oberspreewald-Lausitz", "lat": 51.8695, "long": 13.8796}, {"postal_code": 3222, "postal_code_5": "3222", "city": "Kittlitz", "state": "Brandenburg", "district": "Landkreis Oberspreewald-Lausitz", "lat": 51.8308, "long": 13.9161}, {"postal_code": 3222, "postal_code_5": "3222", "city": "Gro\u00df-Klessow", "state": "Brandenburg", "district": "Landkreis Oberspreewald-Lausitz", "lat": 51.8333, "long": 13.95}, {"postal_code": 3222, "postal_code_5": "3222", "city": "Hindenberg", "state": "Brandenburg", "district": "Landkreis Oberspreewald-Lausitz", "lat": 51.8532, "long": 13.8464}, {"postal_code": 3226, "postal_code_5": "3226", "city": "Ko\u00dfwig", "state": "Brandenburg", "district": "Landkreis Oberspreewald-Lausitz", "lat": 51.7769, "long": 14.0287}, {"postal_code": 3226, "postal_code_5": "3226", "city": "Raddusch", "state": "Brandenburg", "district": "Landkreis Oberspreewald-Lausitz", "lat": 51.8181, "long": 14.0403}, {"postal_code": 3226, "postal_code_5": "3226", "city": "Suschow", "state": "Brandenburg", "district": "Landkreis Oberspreewald-Lausitz", "lat": 51.7994, "long": 14.0923}, {"postal_code": 3226, "postal_code_5": "3226", "city": "Vetschau", "state": "Brandenburg", "district": "Landkreis Oberspreewald-Lausitz", "lat": 51.7864, "long": 14.0794}, {"postal_code": 3226, "postal_code_5": "3226", "city": "Leipe", "state": "Brandenburg", "district": "Landkreis Oberspreewald-Lausitz", "lat": 51.8554, "long": 14.0441}, {"postal_code": 3229, "postal_code_5": "3229", "city": "Luckaitztal", "state": "Brandenburg", "district": "Landkreis Oberspreewald-Lausitz", "lat": 51.6833, "long": 14.0}, {"postal_code": 3229, "postal_code_5": "3229", "city": "Altd\u00f6bern", "state": "Brandenburg", "district": "Landkreis Oberspreewald-Lausitz", "lat": 51.65, "long": 14.0333}, {"postal_code": 3238, "postal_code_5": "3238", "city": "Fischwasser", "state": "Brandenburg", "district": "Landkreis Elbe-Elster", "lat": 51.596, "long": 13.6121}, {"postal_code": 3238, "postal_code_5": "3238", "city": "Oppelhain", "state": "Brandenburg", "district": "Landkreis Elbe-Elster", "lat": 51.5549, "long": 13.5944}, {"postal_code": 3238, "postal_code_5": "3238", "city": "Lieskau", "state": "Brandenburg", "district": "Landkreis Elbe-Elster", "lat": 51.6173, "long": 13.8086}, {"postal_code": 3238, "postal_code_5": "3238", "city": "Lindena", "state": "Brandenburg", "district": "Landkreis Elbe-Elster", "lat": 51.5928, "long": 13.5434}, {"postal_code": 3238, "postal_code_5": "3238", "city": "Sallgast", "state": "Brandenburg", "district": "Landkreis Elbe-Elster", "lat": 51.5887, "long": 13.8486}, {"postal_code": 3238, "postal_code_5": "3238", "city": "Schadewitz", "state": "Brandenburg", "district": "Landkreis Elbe-Elster", "lat": 51.5607, "long": 13.4821}, {"postal_code": 3238, "postal_code_5": "3238", "city": "R\u00fcckersdorf", "state": "Brandenburg", "district": "Landkreis Elbe-Elster", "lat": 51.5695, "long": 13.5723}, {"postal_code": 3238, "postal_code_5": "3238", "city": "Lugau", "state": "Brandenburg", "district": "Landkreis Elbe-Elster", "lat": 51.6109, "long": 13.5979}, {"postal_code": 3238, "postal_code_5": "3238", "city": "Finsterwalde", "state": "Brandenburg", "district": "Landkreis Elbe-Elster", "lat": 51.6339, "long": 13.7066}, {"postal_code": 3238, "postal_code_5": "3238", "city": "Betten", "state": "Brandenburg", "district": "Landkreis Elbe-Elster", "lat": 51.6273, "long": 13.7674}, {"postal_code": 3238, "postal_code_5": "3238", "city": "Massen", "state": "Brandenburg", "district": "Landkreis Elbe-Elster", "lat": 51.6428, "long": 13.733}, {"postal_code": 3238, "postal_code_5": "3238", "city": "Staupitz", "state": "Brandenburg", "district": "Landkreis Elbe-Elster", "lat": 51.5337, "long": 13.6703}, {"postal_code": 3238, "postal_code_5": "3238", "city": "Schacksdorf", "state": "Brandenburg", "district": "Landkreis Elbe-Elster", "lat": 51.6151, "long": 13.7618}, {"postal_code": 3238, "postal_code_5": "3238", "city": "G\u00f6llnitz", "state": "Brandenburg", "district": "Landkreis Elbe-Elster", "lat": 51.64, "long": 13.8575}, {"postal_code": 3238, "postal_code_5": "3238", "city": "Lichterfeld", "state": "Brandenburg", "district": "Landkreis Elbe-Elster", "lat": 51.5976, "long": 13.7781}, {"postal_code": 3238, "postal_code_5": "3238", "city": "Lindthal", "state": "Brandenburg", "district": "Landkreis Elbe-Elster", "lat": 51.6581, "long": 13.7804}, {"postal_code": 3238, "postal_code_5": "3238", "city": "Gruhno", "state": "Brandenburg", "district": "Landkreis Elbe-Elster", "lat": 51.5678, "long": 13.5185}, {"postal_code": 3238, "postal_code_5": "3238", "city": "M\u00fcnchhausen", "state": "Brandenburg", "district": "Landkreis Elbe-Elster", "lat": 51.6673, "long": 13.6447}, {"postal_code": 3238, "postal_code_5": "3238", "city": "Ponnsdorf", "state": "Brandenburg", "district": "Landkreis Elbe-Elster", "lat": 51.6667, "long": 13.6833}, {"postal_code": 3238, "postal_code_5": "3238", "city": "Eichholz-Dr\u00f6\u00dfig", "state": "Brandenburg", "district": "Landkreis Elbe-Elster", "lat": 51.6083, "long": 13.6583}, {"postal_code": 3238, "postal_code_5": "3238", "city": "Gr\u00f6bitz", "state": "Brandenburg", "district": "Landkreis Elbe-Elster", "lat": 51.6582, "long": 13.7138}, {"postal_code": 3238, "postal_code_5": "3238", "city": "Dollenchen", "state": "Brandenburg", "district": "Landkreis Elbe-Elster", "lat": 51.6082, "long": 13.8595}, {"postal_code": 3238, "postal_code_5": "3238", "city": "Gorden", "state": "Brandenburg", "district": "Landkreis Elbe-Elster", "lat": 51.5332, "long": 13.6269}, {"postal_code": 3246, "postal_code_5": "3246", "city": "Crinitz", "state": "Brandenburg", "district": "Landkreis Elbe-Elster", "lat": 51.7333, "long": 13.7667}, {"postal_code": 3246, "postal_code_5": "3246", "city": "Babben", "state": "Brandenburg", "district": "Landkreis Elbe-Elster", "lat": 51.7126, "long": 13.7856}, {"postal_code": 3246, "postal_code_5": "3246", "city": "Gahro", "state": "Brandenburg", "district": "Landkreis Elbe-Elster", "lat": 51.738, "long": 13.7246}, {"postal_code": 3249, "postal_code_5": "3249", "city": "Bahren", "state": "Brandenburg", "district": "Landkreis Elbe-Elster", "lat": 51.7, "long": 13.7167}, {"postal_code": 3249, "postal_code_5": "3249", "city": "Sonnewalde", "state": "Brandenburg", "district": "Landkreis Elbe-Elster", "lat": 51.6922, "long": 13.6473}, {"postal_code": 3249, "postal_code_5": "3249", "city": "Pahlsdorf", "state": "Brandenburg", "district": "Landkreis Elbe-Elster", "lat": 51.7193, "long": 13.6486}, {"postal_code": 3249, "postal_code_5": "3249", "city": "Zeckerin", "state": "Brandenburg", "district": "Landkreis Elbe-Elster", "lat": 51.7112, "long": 13.6321}, {"postal_code": 3249, "postal_code_5": "3249", "city": "Go\u00dfmar", "state": "Brandenburg", "district": "Landkreis Elbe-Elster", "lat": 51.6905, "long": 13.6829}, {"postal_code": 3249, "postal_code_5": "3249", "city": "Kleinkrausnik", "state": "Brandenburg", "district": "Landkreis Elbe-Elster", "lat": 51.7354, "long": 13.5932}, {"postal_code": 3249, "postal_code_5": "3249", "city": "Gro\u00dfkrausnik", "state": "Brandenburg", "district": "Landkreis Elbe-Elster", "lat": 51.7322, "long": 13.6271}, {"postal_code": 3249, "postal_code_5": "3249", "city": "Breitenau", "state": "Brandenburg", "district": "Landkreis Elbe-Elster", "lat": 51.6864, "long": 13.7241}, {"postal_code": 3253, "postal_code_5": "3253", "city": "Doberlug-Kirchhain", "state": "Brandenburg", "district": "Landkreis Elbe-Elster", "lat": 51.6258, "long": 13.5623}, {"postal_code": 3253, "postal_code_5": "3253", "city": "Sch\u00f6newalde", "state": "Brandenburg", "district": "Landkreis Elbe-Elster", "lat": 51.679, "long": 13.6025}, {"postal_code": 3253, "postal_code_5": "3253", "city": "Werenzhain", "state": "Brandenburg", "district": "Landkreis Elbe-Elster", "lat": 51.6546, "long": 13.5322}, {"postal_code": 3253, "postal_code_5": "3253", "city": "Brenitz", "state": "Brandenburg", "district": "Landkreis Elbe-Elster", "lat": 51.7023, "long": 13.6007}, {"postal_code": 3253, "postal_code_5": "3253", "city": "D\u00fcbrichen", "state": "Brandenburg", "district": "Landkreis Elbe-Elster", "lat": 51.6686, "long": 13.4724}, {"postal_code": 3253, "postal_code_5": "3253", "city": "Sch\u00f6nborn", "state": "Brandenburg", "district": "Landkreis Elbe-Elster", "lat": 51.6002, "long": 13.4897}, {"postal_code": 3253, "postal_code_5": "3253", "city": "Nexdorf", "state": "Brandenburg", "district": "Landkreis Elbe-Elster", "lat": 51.6368, "long": 13.3715}, {"postal_code": 3253, "postal_code_5": "3253", "city": "Prie\u00dfen", "state": "Brandenburg", "district": "Landkreis Elbe-Elster", "lat": 51.6613, "long": 13.4301}, {"postal_code": 3253, "postal_code_5": "3253", "city": "Hennersdorf", "state": "Brandenburg", "district": "Landkreis Elbe-Elster", "lat": 51.6369, "long": 13.6069}, {"postal_code": 3253, "postal_code_5": "3253", "city": "Trebbus", "state": "Brandenburg", "district": "Landkreis Elbe-Elster", "lat": 51.6924, "long": 13.5211}, {"postal_code": 3253, "postal_code_5": "3253", "city": "Frankena", "state": "Brandenburg", "district": "Landkreis Elbe-Elster", "lat": 51.658, "long": 13.5932}, {"postal_code": 3253, "postal_code_5": "3253", "city": "Buchhain", "state": "Brandenburg", "district": "Landkreis Elbe-Elster", "lat": 51.6453, "long": 13.3898}, {"postal_code": 3253, "postal_code_5": "3253", "city": "Schilda", "state": "Brandenburg", "district": "Landkreis Elbe-Elster", "lat": 51.6, "long": 13.3833}, {"postal_code": 3253, "postal_code_5": "3253", "city": "Friedersdorf", "state": "Brandenburg", "district": "Landkreis Elbe-Elster", "lat": 51.6985, "long": 13.5726}, {"postal_code": 3253, "postal_code_5": "3253", "city": "Tr\u00f6bitz", "state": "Brandenburg", "district": "Landkreis Elbe-Elster", "lat": 51.6, "long": 13.4333}, {"postal_code": 3253, "postal_code_5": "3253", "city": "Arenzhain", "state": "Brandenburg", "district": "Landkreis Elbe-Elster", "lat": 51.6735, "long": 13.5092}, {"postal_code": 4895, "postal_code_5": "4895", "city": "Falkenberg/Elster", "state": "Brandenburg", "district": "Landkreis Elbe-Elster", "lat": 51.5875, "long": 13.2364}, {"postal_code": 4910, "postal_code_5": "4910", "city": "Elsterwerda", "state": "Brandenburg", "district": "Landkreis Elbe-Elster", "lat": 51.4604, "long": 13.52}, {"postal_code": 4910, "postal_code_5": "4910", "city": "Haida", "state": "Brandenburg", "district": "Landkreis Elbe-Elster", "lat": 51.4793, "long": 13.4679}, {"postal_code": 4916, "postal_code_5": "4916", "city": "Heideeck", "state": "Brandenburg", "district": "Landkreis Elbe-Elster", "lat": 51.8333, "long": 13.2}, {"postal_code": 4916, "postal_code_5": "4916", "city": "Werchau", "state": "Brandenburg", "district": "Landkreis Elbe-Elster", "lat": 51.7782, "long": 13.3194}, {"postal_code": 4916, "postal_code_5": "4916", "city": "Herzberg (Elster)", "state": "Brandenburg", "district": "Landkreis Elbe-Elster", "lat": 51.6833, "long": 13.2333}, {"postal_code": 4916, "postal_code_5": "4916", "city": "Stolzenhain", "state": "Brandenburg", "district": "Landkreis Elbe-Elster", "lat": 51.8441, "long": 13.1607}, {"postal_code": 4916, "postal_code_5": "4916", "city": "Themesgrund", "state": "Brandenburg", "district": "Landkreis Elbe-Elster", "lat": 51.7667, "long": 13.25}, {"postal_code": 4916, "postal_code_5": "4916", "city": "Wildberg", "state": "Brandenburg", "district": "Landkreis Elbe-Elster", "lat": 51.7833, "long": 13.3167}, {"postal_code": 4924, "postal_code_5": "4924", "city": "Bad Liebenwerda", "state": "Brandenburg", "district": "Landkreis Elbe-Elster", "lat": 51.5183, "long": 13.3946}, {"postal_code": 4924, "postal_code_5": "4924", "city": "Uebigau-Wahrenbr\u00fcck", "state": "Brandenburg", "district": "Landkreis Elbe-Elster", "lat": 51.5167, "long": 13.3333}, {"postal_code": 4928, "postal_code_5": "4928", "city": "Kahla", "state": "Brandenburg", "district": "Landkreis Elbe-Elster", "lat": 51.4678, "long": 13.5663}, {"postal_code": 4928, "postal_code_5": "4928", "city": "Plessa", "state": "Brandenburg", "district": "Landkreis Elbe-Elster", "lat": 51.4667, "long": 13.6167}, {"postal_code": 4928, "postal_code_5": "4928", "city": "Schraden", "state": "Brandenburg", "district": "Landkreis Elbe-Elster", "lat": 51.4253, "long": 13.6949}, {"postal_code": 4928, "postal_code_5": "4928", "city": "D\u00f6llingen", "state": "Brandenburg", "district": "Landkreis Elbe-Elster", "lat": 51.4837, "long": 13.5883}, {"postal_code": 4931, "postal_code_5": "4931", "city": "M\u00fchlberg (Elbe)", "state": "Brandenburg", "district": "Landkreis Elbe-Elster", "lat": 51.4333, "long": 13.2167}, {"postal_code": 4932, "postal_code_5": "4932", "city": "Reichenhain", "state": "Brandenburg", "district": "Landkreis Elbe-Elster", "lat": 51.4598, "long": 13.4287}, {"postal_code": 4932, "postal_code_5": "4932", "city": "Gr\u00f6den", "state": "Brandenburg", "district": "Landkreis Elbe-Elster", "lat": 51.4, "long": 13.5667}, {"postal_code": 4932, "postal_code_5": "4932", "city": "Wainsdorf", "state": "Brandenburg", "district": "Landkreis Elbe-Elster", "lat": 51.4094, "long": 13.5073}, {"postal_code": 4932, "postal_code_5": "4932", "city": "Saathain", "state": "Brandenburg", "district": "Landkreis Elbe-Elster", "lat": 51.4632, "long": 13.4638}, {"postal_code": 4932, "postal_code_5": "4932", "city": "Gro\u00dfthiemig", "state": "Brandenburg", "district": "Landkreis Elbe-Elster", "lat": 51.3833, "long": 13.6667}, {"postal_code": 4932, "postal_code_5": "4932", "city": "Merzdorf", "state": "Brandenburg", "district": "Landkreis Elbe-Elster", "lat": 51.4, "long": 13.5333}, {"postal_code": 4932, "postal_code_5": "4932", "city": "Hirschfeld", "state": "Brandenburg", "district": "Landkreis Elbe-Elster", "lat": 51.3833, "long": 13.6167}, {"postal_code": 4932, "postal_code_5": "4932", "city": "Pr\u00f6sen", "state": "Brandenburg", "district": "Landkreis Elbe-Elster", "lat": 51.4153, "long": 13.5501}, {"postal_code": 4934, "postal_code_5": "4934", "city": "Dreska", "state": "Brandenburg", "district": "Landkreis Elbe-Elster", "lat": 51.4853, "long": 13.538}, {"postal_code": 4934, "postal_code_5": "4934", "city": "Hohenleipisch", "state": "Brandenburg", "district": "Landkreis Elbe-Elster", "lat": 51.5, "long": 13.55}, {"postal_code": 4936, "postal_code_5": "4936", "city": "Pro\u00dfmarke", "state": "Brandenburg", "district": "Landkreis Elbe-Elster", "lat": 51.7408, "long": 13.4913}, {"postal_code": 4936, "postal_code_5": "4936", "city": "K\u00f6rba", "state": "Brandenburg", "district": "Landkreis Elbe-Elster", "lat": 51.8047, "long": 13.3877}, {"postal_code": 4936, "postal_code_5": "4936", "city": "Stechau", "state": "Brandenburg", "district": "Landkreis Elbe-Elster", "lat": 51.6974, "long": 13.4701}, {"postal_code": 4936, "postal_code_5": "4936", "city": "Lebusa", "state": "Brandenburg", "district": "Landkreis Elbe-Elster", "lat": 51.7957, "long": 13.4207}, {"postal_code": 4936, "postal_code_5": "4936", "city": "Jagsal", "state": "Brandenburg", "district": "Landkreis Elbe-Elster", "lat": 51.6866, "long": 13.354}, {"postal_code": 4936, "postal_code_5": "4936", "city": "Sch\u00f6na-Kolpien", "state": "Brandenburg", "district": "Landkreis Elbe-Elster", "lat": 51.825, "long": 13.45}, {"postal_code": 4936, "postal_code_5": "4936", "city": "Naundorf", "state": "Brandenburg", "district": "Landkreis Elbe-Elster", "lat": 51.7374, "long": 13.4401}, {"postal_code": 4936, "postal_code_5": "4936", "city": "\u00d6lsig", "state": "Brandenburg", "district": "Landkreis Elbe-Elster", "lat": 51.6833, "long": 13.375}, {"postal_code": 4936, "postal_code_5": "4936", "city": "Hillmersdorf", "state": "Brandenburg", "district": "Landkreis Elbe-Elster", "lat": 51.7091, "long": 13.4873}, {"postal_code": 4936, "postal_code_5": "4936", "city": "Hohenbucko", "state": "Brandenburg", "district": "Landkreis Elbe-Elster", "lat": 51.7667, "long": 13.4667}, {"postal_code": 4936, "postal_code_5": "4936", "city": "Kolochau", "state": "Brandenburg", "district": "Landkreis Elbe-Elster", "lat": 51.7268, "long": 13.3177}, {"postal_code": 4936, "postal_code_5": "4936", "city": "Malitschkendorf", "state": "Brandenburg", "district": "Landkreis Elbe-Elster", "lat": 51.6945, "long": 13.3296}, {"postal_code": 4936, "postal_code_5": "4936", "city": "Wehrhain", "state": "Brandenburg", "district": "Landkreis Elbe-Elster", "lat": 51.7213, "long": 13.4186}, {"postal_code": 4936, "postal_code_5": "4936", "city": "Schlieben", "state": "Brandenburg", "district": "Landkreis Elbe-Elster", "lat": 51.7238, "long": 13.383}, {"postal_code": 4936, "postal_code_5": "4936", "city": "Frankenhain", "state": "Brandenburg", "district": "Landkreis Elbe-Elster", "lat": 51.7027, "long": 13.4154}, {"postal_code": 4936, "postal_code_5": "4936", "city": "Freileben", "state": "Brandenburg", "district": "Landkreis Elbe-Elster", "lat": 51.7833, "long": 13.4}, {"postal_code": 4938, "postal_code_5": "4938", "city": "Uebigau-Wahrenbr\u00fcck", "state": "Brandenburg", "district": "Landkreis Elbe-Elster", "lat": 51.5167, "long": 13.3333}, {"postal_code": 12529, "postal_code_5": "12529", "city": "Sch\u00f6nefeld", "state": "Brandenburg", "district": "Landkreis Dahme-Spreewald", "lat": 52.389, "long": 13.5037}, {"postal_code": 14461, "postal_code_5": "14461", "city": "Potsdam", "state": "Brandenburg", "district": "Kreisfreie Stadt Potsdam", "lat": 52.4, "long": 13.0667}, {"postal_code": 14467, "postal_code_5": "14467", "city": "Potsdam", "state": "Brandenburg", "district": "Kreisfreie Stadt Potsdam", "lat": 52.403, "long": 13.0626}, {"postal_code": 14469, "postal_code_5": "14469", "city": "Potsdam", "state": "Brandenburg", "district": "Kreisfreie Stadt Potsdam", "lat": 52.4091, "long": 12.9899}, {"postal_code": 14471, "postal_code_5": "14471", "city": "Potsdam", "state": "Brandenburg", "district": "Kreisfreie Stadt Potsdam", "lat": 52.3744, "long": 13.0102}, {"postal_code": 14473, "postal_code_5": "14473", "city": "Potsdam", "state": "Brandenburg", "district": "Kreisfreie Stadt Potsdam", "lat": 52.3908, "long": 13.0645}, {"postal_code": 14476, "postal_code_5": "14476", "city": "Fahrland", "state": "Brandenburg", "district": "Kreisfreie Stadt Potsdam", "lat": 52.4689, "long": 13.0117}, {"postal_code": 14476, "postal_code_5": "14476", "city": "Golm", "state": "Brandenburg", "district": "Kreisfreie Stadt Potsdam", "lat": 52.4062, "long": 12.967}, {"postal_code": 14476, "postal_code_5": "14476", "city": "Marquardt", "state": "Brandenburg", "district": "Kreisfreie Stadt Potsdam", "lat": 52.459, "long": 12.9663}, {"postal_code": 14476, "postal_code_5": "14476", "city": "Neu Fahrland", "state": "Brandenburg", "district": "Kreisfreie Stadt Potsdam", "lat": 52.4489, "long": 13.0492}, {"postal_code": 14476, "postal_code_5": "14476", "city": "Seeburg", "state": "Brandenburg", "district": "Landkreis Havelland", "lat": 52.5097, "long": 13.1198}, {"postal_code": 14476, "postal_code_5": "14476", "city": "Satzkorn", "state": "Brandenburg", "district": "Kreisfreie Stadt Potsdam", "lat": 52.4744, "long": 12.9899}, {"postal_code": 14476, "postal_code_5": "14476", "city": "T\u00f6plitz", "state": "Brandenburg", "district": "Landkreis Potsdam-Mittelmark", "lat": 52.4167, "long": 12.7944}, {"postal_code": 14476, "postal_code_5": "14476", "city": "Gro\u00df Glienicke", "state": "Brandenburg", "district": "Kreisfreie Stadt Potsdam", "lat": 52.4675, "long": 13.1079}, {"postal_code": 14476, "postal_code_5": "14476", "city": "Uetz-Paaren", "state": "Brandenburg", "district": "Kreisfreie Stadt Potsdam", "lat": 52.4726, "long": 12.9376}, {"postal_code": 14478, "postal_code_5": "14478", "city": "Potsdam", "state": "Brandenburg", "district": "Kreisfreie Stadt Potsdam", "lat": 52.3725, "long": 13.0914}, {"postal_code": 14480, "postal_code_5": "14480", "city": "Potsdam", "state": "Brandenburg", "district": "Kreisfreie Stadt Potsdam", "lat": 52.3689, "long": 13.1273}, {"postal_code": 14482, "postal_code_5": "14482", "city": "Potsdam", "state": "Brandenburg", "district": "Kreisfreie Stadt Potsdam", "lat": 52.3871, "long": 13.0993}, {"postal_code": 14513, "postal_code_5": "14513", "city": "Teltow", "state": "Brandenburg", "district": "Landkreis Potsdam-Mittelmark", "lat": 52.4031, "long": 13.2601}, {"postal_code": 14532, "postal_code_5": "14532", "city": "Fahlhorst", "state": "Brandenburg", "district": "Landkreis Potsdam-Mittelmark", "lat": 52.3061, "long": 13.1626}, {"postal_code": 14532, "postal_code_5": "14532", "city": "Kleinmachnow", "state": "Brandenburg", "district": "Landkreis Potsdam-Mittelmark", "lat": 52.4079, "long": 13.2251}, {"postal_code": 14532, "postal_code_5": "14532", "city": "Nudow", "state": "Brandenburg", "district": "Landkreis Potsdam-Mittelmark", "lat": 52.3283, "long": 13.1647}, {"postal_code": 14532, "postal_code_5": "14532", "city": "Stahnsdorf", "state": "Brandenburg", "district": "Landkreis Potsdam-Mittelmark", "lat": 52.3833, "long": 13.2167}, {"postal_code": 14532, "postal_code_5": "14532", "city": "Philippsthal", "state": "Brandenburg", "district": "Landkreis Potsdam-Mittelmark", "lat": 52.3336, "long": 13.1413}, {"postal_code": 14542, "postal_code_5": "14542", "city": "Werder (Havel)", "state": "Brandenburg", "district": "Landkreis Potsdam-Mittelmark", "lat": 52.3687, "long": 12.9188}, {"postal_code": 14542, "postal_code_5": "14542", "city": "Schwielowsee", "state": "Brandenburg", "district": "Landkreis Potsdam-Mittelmark", "lat": 52.3389, "long": 12.9722}, {"postal_code": 14542, "postal_code_5": "14542", "city": "Kloster Lehnin", "state": "Brandenburg", "district": "Landkreis Potsdam-Mittelmark", "lat": 52.3271, "long": 12.6625}, {"postal_code": 14547, "postal_code_5": "14547", "city": "Beelitz", "state": "Brandenburg", "district": "Landkreis Potsdam-Mittelmark", "lat": 52.2381, "long": 12.9714}, {"postal_code": 14547, "postal_code_5": "14547", "city": "St\u00fccken", "state": "Brandenburg", "district": "Landkreis Potsdam-Mittelmark", "lat": 52.245, "long": 13.0792}, {"postal_code": 14548, "postal_code_5": "14548", "city": "Schwielowsee", "state": "Brandenburg", "district": "Landkreis Potsdam-Mittelmark", "lat": 52.3389, "long": 12.9722}, {"postal_code": 14550, "postal_code_5": "14550", "city": "Deetz", "state": "Brandenburg", "district": "Landkreis Potsdam-Mittelmark", "lat": 52.4466, "long": 12.7718}, {"postal_code": 14550, "postal_code_5": "14550", "city": "Schmergow", "state": "Brandenburg", "district": "Landkreis Potsdam-Mittelmark", "lat": 52.454, "long": 12.8116}, {"postal_code": 14550, "postal_code_5": "14550", "city": "Derwitz", "state": "Brandenburg", "district": "Landkreis Potsdam-Mittelmark", "lat": 52.4029, "long": 12.8245}, {"postal_code": 14550, "postal_code_5": "14550", "city": "Krielow", "state": "Brandenburg", "district": "Landkreis Potsdam-Mittelmark", "lat": 52.4166, "long": 12.8034}, {"postal_code": 14550, "postal_code_5": "14550", "city": "Bochow", "state": "Brandenburg", "district": "Landkreis Potsdam-Mittelmark", "lat": 52.381, "long": 12.7934}, {"postal_code": 14550, "postal_code_5": "14550", "city": "Gro\u00df Kreutz", "state": "Brandenburg", "district": "Landkreis Potsdam-Mittelmark", "lat": 52.4028, "long": 12.7794}, {"postal_code": 14552, "postal_code_5": "14552", "city": "Fresdorf", "state": "Brandenburg", "district": "Landkreis Potsdam-Mittelmark", "lat": 52.2703, "long": 13.0754}, {"postal_code": 14552, "postal_code_5": "14552", "city": "Tremsdorf", "state": "Brandenburg", "district": "Landkreis Potsdam-Mittelmark", "lat": 52.27, "long": 13.1198}, {"postal_code": 14552, "postal_code_5": "14552", "city": "Saarmund", "state": "Brandenburg", "district": "Landkreis Potsdam-Mittelmark", "lat": 52.3162, "long": 13.1251}, {"postal_code": 14552, "postal_code_5": "14552", "city": "Wildenbruch", "state": "Brandenburg", "district": "Landkreis Potsdam-Mittelmark", "lat": 52.283, "long": 13.0617}, {"postal_code": 14552, "postal_code_5": "14552", "city": "Michendorf", "state": "Brandenburg", "district": "Landkreis Potsdam-Mittelmark", "lat": 52.3135, "long": 13.03}, {"postal_code": 14554, "postal_code_5": "14554", "city": "Seddiner See", "state": "Brandenburg", "district": "Landkreis Potsdam-Mittelmark", "lat": 52.2722, "long": 13.0167}, {"postal_code": 14557, "postal_code_5": "14557", "city": "Wilhelmshorst", "state": "Brandenburg", "district": "Landkreis Potsdam-Mittelmark", "lat": 52.3318, "long": 13.0622}, {"postal_code": 14557, "postal_code_5": "14557", "city": "Langerwisch", "state": "Brandenburg", "district": "Landkreis Potsdam-Mittelmark", "lat": 52.3167, "long": 13.0667}, {"postal_code": 14558, "postal_code_5": "14558", "city": "Bergholz-Rehbr\u00fccke", "state": "Brandenburg", "district": "Landkreis Potsdam-Mittelmark", "lat": 52.3472, "long": 13.1053}, {"postal_code": 14612, "postal_code_5": "14612", "city": "Falkensee", "state": "Brandenburg", "district": "Landkreis Havelland", "lat": 52.5601, "long": 13.0927}, {"postal_code": 14621, "postal_code_5": "14621", "city": "Sch\u00f6nwalde", "state": "Brandenburg", "district": "Landkreis Havelland", "lat": 52.6192, "long": 13.1265}, {"postal_code": 14624, "postal_code_5": "14624", "city": "Dallgow-D\u00f6beritz", "state": "Brandenburg", "district": "Landkreis Havelland", "lat": 52.5427, "long": 13.0584}, {"postal_code": 14627, "postal_code_5": "14627", "city": "Elstal", "state": "Brandenburg", "district": "Landkreis Havelland", "lat": 52.5425, "long": 12.9879}, {"postal_code": 14641, "postal_code_5": "14641", "city": "Perwenitz", "state": "Brandenburg", "district": "Landkreis Havelland", "lat": 52.6585, "long": 13.0124}, {"postal_code": 14641, "postal_code_5": "14641", "city": "Nauen", "state": "Brandenburg", "district": "Landkreis Havelland", "lat": 52.607, "long": 12.8737}, {"postal_code": 14641, "postal_code_5": "14641", "city": "B\u00f6rnicke", "state": "Brandenburg", "district": "Landkreis Havelland", "lat": 52.686, "long": 12.9355}, {"postal_code": 14641, "postal_code_5": "14641", "city": "Berge", "state": "Brandenburg", "district": "Landkreis Havelland", "lat": 52.6201, "long": 12.7951}, {"postal_code": 14641, "postal_code_5": "14641", "city": "Pessin", "state": "Brandenburg", "district": "Landkreis Havelland", "lat": 52.6424, "long": 12.6668}, {"postal_code": 14641, "postal_code_5": "14641", "city": "Bergerdamm", "state": "Brandenburg", "district": "Landkreis Havelland", "lat": 52.6561, "long": 12.8039}, {"postal_code": 14641, "postal_code_5": "14641", "city": "Gr\u00fcnefeld", "state": "Brandenburg", "district": "Landkreis Havelland", "lat": 52.6763, "long": 12.9646}, {"postal_code": 14641, "postal_code_5": "14641", "city": "Zeestow", "state": "Brandenburg", "district": "Landkreis Havelland", "lat": 52.573, "long": 12.9592}, {"postal_code": 14641, "postal_code_5": "14641", "city": "Pausin", "state": "Brandenburg", "district": "Landkreis Havelland", "lat": 52.6389, "long": 13.0423}, {"postal_code": 14641, "postal_code_5": "14641", "city": "Paulinenaue", "state": "Brandenburg", "district": "Landkreis Havelland", "lat": 52.677, "long": 12.7107}, {"postal_code": 14641, "postal_code_5": "14641", "city": "Tremmen", "state": "Brandenburg", "district": "Landkreis Havelland", "lat": 52.5305, "long": 12.8181}, {"postal_code": 14641, "postal_code_5": "14641", "city": "Paaren im Glien", "state": "Brandenburg", "district": "Landkreis Havelland", "lat": 52.6538, "long": 12.9876}, {"postal_code": 14641, "postal_code_5": "14641", "city": "Wachow", "state": "Brandenburg", "district": "Landkreis Havelland", "lat": 52.5337, "long": 12.7574}, {"postal_code": 14641, "postal_code_5": "14641", "city": "Klein Behnitz", "state": "Brandenburg", "district": "Landkreis Havelland", "lat": 52.567, "long": 12.7083}, {"postal_code": 14641, "postal_code_5": "14641", "city": "Ribbeck", "state": "Brandenburg", "district": "Landkreis Havelland", "lat": 52.6246, "long": 12.7514}, {"postal_code": 14641, "postal_code_5": "14641", "city": "Wansdorf", "state": "Brandenburg", "district": "Landkreis Havelland", "lat": 52.6399, "long": 13.0869}, {"postal_code": 14641, "postal_code_5": "14641", "city": "Br\u00e4dikow", "state": "Brandenburg", "district": "Landkreis Havelland", "lat": 52.6898, "long": 12.65}, {"postal_code": 14641, "postal_code_5": "14641", "city": "Tietzow", "state": "Brandenburg", "district": "Landkreis Havelland", "lat": 52.7125, "long": 12.9337}, {"postal_code": 14641, "postal_code_5": "14641", "city": "Etzin", "state": "Brandenburg", "district": "Landkreis Havelland", "lat": 52.5177, "long": 12.8542}, {"postal_code": 14641, "postal_code_5": "14641", "city": "Wustermark", "state": "Brandenburg", "district": "Landkreis Havelland", "lat": 52.55, "long": 12.95}, {"postal_code": 14641, "postal_code_5": "14641", "city": "Markee", "state": "Brandenburg", "district": "Landkreis Havelland", "lat": 52.5791, "long": 12.872}, {"postal_code": 14641, "postal_code_5": "14641", "city": "Selbelang", "state": "Brandenburg", "district": "Landkreis Havelland", "lat": 52.6328, "long": 12.7138}, {"postal_code": 14641, "postal_code_5": "14641", "city": "Bredow", "state": "Brandenburg", "district": "Landkreis Havelland", "lat": 52.5887, "long": 12.9266}, {"postal_code": 14641, "postal_code_5": "14641", "city": "Kienberg", "state": "Brandenburg", "district": "Landkreis Havelland", "lat": 52.663, "long": 12.9058}, {"postal_code": 14641, "postal_code_5": "14641", "city": "M\u00fchlenberge", "state": "Brandenburg", "district": "Landkreis Havelland", "lat": 52.6667, "long": 12.6111}, {"postal_code": 14641, "postal_code_5": "14641", "city": "Gro\u00df Behnitz", "state": "Brandenburg", "district": "Landkreis Havelland", "lat": 52.5796, "long": 12.7329}, {"postal_code": 14641, "postal_code_5": "14641", "city": "Falkenrehde", "state": "Brandenburg", "district": "Landkreis Havelland", "lat": 52.4963, "long": 12.9234}, {"postal_code": 14641, "postal_code_5": "14641", "city": "Retzow", "state": "Brandenburg", "district": "Landkreis Havelland", "lat": 52.6248, "long": 12.6855}, {"postal_code": 14641, "postal_code_5": "14641", "city": "Lietzow", "state": "Brandenburg", "district": "Landkreis Havelland", "lat": 52.6153, "long": 12.8305}, {"postal_code": 14656, "postal_code_5": "14656", "city": "Brieselang", "state": "Brandenburg", "district": "Landkreis Havelland", "lat": 52.5833, "long": 13.0}, {"postal_code": 14662, "postal_code_5": "14662", "city": "Friesack", "state": "Brandenburg", "district": "Landkreis Havelland", "lat": 52.7376, "long": 12.5797}, {"postal_code": 14662, "postal_code_5": "14662", "city": "Vietznitz", "state": "Brandenburg", "district": "Landkreis Havelland", "lat": 52.7284, "long": 12.6256}, {"postal_code": 14662, "postal_code_5": "14662", "city": "M\u00fchlenberge", "state": "Brandenburg", "district": "Landkreis Havelland", "lat": 52.6667, "long": 12.6111}, {"postal_code": 14662, "postal_code_5": "14662", "city": "Warsow", "state": "Brandenburg", "district": "Landkreis Havelland", "lat": 52.7113, "long": 12.6433}, {"postal_code": 14669, "postal_code_5": "14669", "city": "Ketzin", "state": "Brandenburg", "district": "Landkreis Havelland", "lat": 52.4781, "long": 12.8453}, {"postal_code": 14669, "postal_code_5": "14669", "city": "Zachow", "state": "Brandenburg", "district": "Landkreis Havelland", "lat": 52.4837, "long": 12.7845}, {"postal_code": 14712, "postal_code_5": "14712", "city": "Rathenow", "state": "Brandenburg", "district": "Landkreis Havelland", "lat": 52.6066, "long": 12.337}, {"postal_code": 14715, "postal_code_5": "14715", "city": "Kotzen", "state": "Brandenburg", "district": "Landkreis Havelland", "lat": 52.6333, "long": 12.5167}, {"postal_code": 14715, "postal_code_5": "14715", "city": "M\u00e4rkisch Luch Garlitz", "state": "Brandenburg", "district": "Landkreis Havelland", "lat": 52.5667, "long": 12.5667}, {"postal_code": 14715, "postal_code_5": "14715", "city": "Gr\u00e4ningen", "state": "Brandenburg", "district": "Landkreis Havelland", "lat": 52.5789, "long": 12.4722}, {"postal_code": 14715, "postal_code_5": "14715", "city": "Bamme", "state": "Brandenburg", "district": "Landkreis Havelland", "lat": 52.583, "long": 12.4336}, {"postal_code": 14715, "postal_code_5": "14715", "city": "M\u00e4rkisch Luch", "state": "Brandenburg", "district": "Landkreis Havelland", "lat": 52.5875, "long": 12.6167}, {"postal_code": 14715, "postal_code_5": "14715", "city": "M\u00e4rkisch Luch Buschow", "state": "Brandenburg", "district": "Landkreis Havelland", "lat": 52.5833, "long": 12.6333}, {"postal_code": 14715, "postal_code_5": "14715", "city": "M\u00fctzlitz", "state": "Brandenburg", "district": "Landkreis Havelland", "lat": 52.5585, "long": 12.5108}, {"postal_code": 14715, "postal_code_5": "14715", "city": "Kriele", "state": "Brandenburg", "district": "Landkreis Havelland", "lat": 52.6551, "long": 12.5557}, {"postal_code": 14715, "postal_code_5": "14715", "city": "Landin", "state": "Brandenburg", "district": "Landkreis Havelland", "lat": 52.6642, "long": 12.5353}, {"postal_code": 14715, "postal_code_5": "14715", "city": "M\u00e4rkisch Luch Barnewitz", "state": "Brandenburg", "district": "Landkreis Havelland", "lat": 52.5667, "long": 12.6167}, {"postal_code": 14715, "postal_code_5": "14715", "city": "M\u00f6thlitz", "state": "Brandenburg", "district": "Landkreis Havelland", "lat": 52.4755, "long": 12.3899}, {"postal_code": 14715, "postal_code_5": "14715", "city": "Liepe", "state": "Brandenburg", "district": "Landkreis Havelland", "lat": 52.6135, "long": 12.6014}, {"postal_code": 14715, "postal_code_5": "14715", "city": "Zollchow", "state": "Brandenburg", "district": "Landkreis Havelland", "lat": 52.5282, "long": 12.21}, {"postal_code": 14715, "postal_code_5": "14715", "city": "M\u00e4rkisch Luch M\u00f6thlow", "state": "Brandenburg", "district": "Landkreis Havelland", "lat": 52.6, "long": 12.65}, {"postal_code": 14715, "postal_code_5": "14715", "city": "Gro\u00dfwudicke", "state": "Brandenburg", "district": "Landkreis Havelland", "lat": 52.5929, "long": 12.2327}, {"postal_code": 14715, "postal_code_5": "14715", "city": "Vieritz", "state": "Brandenburg", "district": "Landkreis Havelland", "lat": 52.5249, "long": 12.2564}, {"postal_code": 14715, "postal_code_5": "14715", "city": "Nennhausen", "state": "Brandenburg", "district": "Landkreis Havelland", "lat": 52.6, "long": 12.5}, {"postal_code": 14715, "postal_code_5": "14715", "city": "Jerchel", "state": "Brandenburg", "district": "Landkreis Havelland", "lat": 52.4876, "long": 12.3433}, {"postal_code": 14715, "postal_code_5": "14715", "city": "B\u00fctzer", "state": "Brandenburg", "district": "Landkreis Havelland", "lat": 52.5364, "long": 12.2995}, {"postal_code": 14715, "postal_code_5": "14715", "city": "Seeblick", "state": "Brandenburg", "district": "Landkreis Havelland", "lat": 52.6722, "long": 12.3778}, {"postal_code": 14715, "postal_code_5": "14715", "city": "Milow", "state": "Brandenburg", "district": "Landkreis Havelland", "lat": 52.5195, "long": 12.3115}, {"postal_code": 14715, "postal_code_5": "14715", "city": "Havelaue", "state": "Brandenburg", "district": "Landkreis Havelland", "lat": 52.7167, "long": 12.2567}, {"postal_code": 14715, "postal_code_5": "14715", "city": "Nitzahn", "state": "Brandenburg", "district": "Landkreis Havelland", "lat": 52.4672, "long": 12.3608}, {"postal_code": 14715, "postal_code_5": "14715", "city": "Stechow-Ferchesar", "state": "Brandenburg", "district": "Landkreis Havelland", "lat": 52.6478, "long": 12.45}, {"postal_code": 14727, "postal_code_5": "14727", "city": "Premnitz", "state": "Brandenburg", "district": "Landkreis Havelland", "lat": 52.5318, "long": 12.3485}, {"postal_code": 14727, "postal_code_5": "14727", "city": "D\u00f6beritz", "state": "Brandenburg", "district": "Landkreis Havelland", "lat": 52.5222, "long": 12.3682}, {"postal_code": 14728, "postal_code_5": "14728", "city": "Rhinow", "state": "Brandenburg", "district": "Landkreis Havelland", "lat": 52.7509, "long": 12.3419}, {"postal_code": 14728, "postal_code_5": "14728", "city": "Havelaue", "state": "Brandenburg", "district": "Landkreis Havelland", "lat": 52.7167, "long": 12.2567}, {"postal_code": 14728, "postal_code_5": "14728", "city": "Kle\u00dfen-G\u00f6rne", "state": "Brandenburg", "district": "Landkreis Havelland", "lat": 52.7167, "long": 12.5}, {"postal_code": 14728, "postal_code_5": "14728", "city": "Gollenberg", "state": "Brandenburg", "district": "Landkreis Havelland", "lat": 52.745, "long": 12.4}, {"postal_code": 14770, "postal_code_5": "14770", "city": "Brandenburg an der Havel", "state": "Brandenburg", "district": "Kreisfreie Stadt Brandenburg an der Havel", "lat": 52.4189, "long": 12.5228}, {"postal_code": 14772, "postal_code_5": "14772", "city": "Brandenburg an der Havel", "state": "Brandenburg", "district": "Kreisfreie Stadt Brandenburg an der Havel", "lat": 52.4358, "long": 12.5297}, {"postal_code": 14774, "postal_code_5": "14774", "city": "Brandenburg an der Havel", "state": "Brandenburg", "district": "Kreisfreie Stadt Brandenburg an der Havel", "lat": 52.3864, "long": 12.4144}, {"postal_code": 14776, "postal_code_5": "14776", "city": "Brandenburg an der Havel", "state": "Brandenburg", "district": "Kreisfreie Stadt Brandenburg an der Havel", "lat": 52.4043, "long": 12.568}, {"postal_code": 14778, "postal_code_5": "14778", "city": "Wollin", "state": "Brandenburg", "district": "Landkreis Potsdam-Mittelmark", "lat": 52.2833, "long": 12.4667}, {"postal_code": 14778, "postal_code_5": "14778", "city": "Wenzlow", "state": "Brandenburg", "district": "Landkreis Potsdam-Mittelmark", "lat": 52.3, "long": 12.45}, {"postal_code": 14778, "postal_code_5": "14778", "city": "Trechwitz", "state": "Brandenburg", "district": "Landkreis Potsdam-Mittelmark", "lat": 52.3662, "long": 12.7192}, {"postal_code": 14778, "postal_code_5": "14778", "city": "Beetzsee", "state": "Brandenburg", "district": "Landkreis Potsdam-Mittelmark", "lat": 52.4833, "long": 12.5611}, {"postal_code": 14778, "postal_code_5": "14778", "city": "G\u00f6tz", "state": "Brandenburg", "district": "Landkreis Potsdam-Mittelmark", "lat": 52.4197, "long": 12.7193}, {"postal_code": 14778, "postal_code_5": "14778", "city": "Gollwitz", "state": "Brandenburg", "district": "Kreisfreie Stadt Brandenburg an der Havel", "lat": 52.4195, "long": 12.6451}, {"postal_code": 14778, "postal_code_5": "14778", "city": "Wust", "state": "Brandenburg", "district": "Kreisfreie Stadt Brandenburg an der Havel", "lat": 52.4147, "long": 12.6106}, {"postal_code": 14778, "postal_code_5": "14778", "city": "Roskow", "state": "Brandenburg", "district": "Landkreis Potsdam-Mittelmark", "lat": 52.4724, "long": 12.7189}, {"postal_code": 14778, "postal_code_5": "14778", "city": "P\u00e4wesin", "state": "Brandenburg", "district": "Landkreis Potsdam-Mittelmark", "lat": 52.5167, "long": 12.7167}, {"postal_code": 14778, "postal_code_5": "14778", "city": "Schenkenberg", "state": "Brandenburg", "district": "Landkreis Potsdam-Mittelmark", "lat": 52.3904, "long": 12.7112}, {"postal_code": 14778, "postal_code_5": "14778", "city": "Havelsee", "state": "Brandenburg", "district": "Landkreis Potsdam-Mittelmark", "lat": 52.4929, "long": 12.4667}, {"postal_code": 14778, "postal_code_5": "14778", "city": "Golzow", "state": "Brandenburg", "district": "Landkreis Potsdam-Mittelmark", "lat": 52.2762, "long": 12.6005}, {"postal_code": 14778, "postal_code_5": "14778", "city": "Kloster Lehnin", "state": "Brandenburg", "district": "Landkreis Potsdam-Mittelmark", "lat": 52.3271, "long": 12.6625}, {"postal_code": 14778, "postal_code_5": "14778", "city": "Planebruch", "state": "Brandenburg", "district": "Landkreis Potsdam-Mittelmark", "lat": 52.2542, "long": 12.6875}, {"postal_code": 14778, "postal_code_5": "14778", "city": "Jeserig", "state": "Brandenburg", "district": "Landkreis Potsdam-Mittelmark", "lat": 52.0859, "long": 12.4511}, {"postal_code": 14778, "postal_code_5": "14778", "city": "Beetzseeheide", "state": "Brandenburg", "district": "Landkreis Potsdam-Mittelmark", "lat": 52.4917, "long": 12.6125}, {"postal_code": 14778, "postal_code_5": "14778", "city": "Planetal", "state": "Brandenburg", "district": "Landkreis Potsdam-Mittelmark", "lat": 52.1167, "long": 12.6767}, {"postal_code": 14789, "postal_code_5": "14789", "city": "Wusterwitz", "state": "Brandenburg", "district": "Landkreis Potsdam-Mittelmark", "lat": 52.3667, "long": 12.3849}, {"postal_code": 14789, "postal_code_5": "14789", "city": "Bensdorf", "state": "Brandenburg", "district": "Landkreis Potsdam-Mittelmark", "lat": 52.4167, "long": 12.3333}, {"postal_code": 14789, "postal_code_5": "14789", "city": "Rosenau", "state": "Brandenburg", "district": "Landkreis Potsdam-Mittelmark", "lat": 52.3292, "long": 12.3583}, {"postal_code": 14793, "postal_code_5": "14793", "city": "Gr\u00e4ben", "state": "Brandenburg", "district": "Landkreis Potsdam-Mittelmark", "lat": 52.2333, "long": 12.4333}, {"postal_code": 14793, "postal_code_5": "14793", "city": "Rottstock", "state": "Brandenburg", "district": "Landkreis Potsdam-Mittelmark", "lat": 52.1989, "long": 12.3523}, {"postal_code": 14793, "postal_code_5": "14793", "city": "Buckautal", "state": "Brandenburg", "district": "Landkreis Potsdam-Mittelmark", "lat": 52.2333, "long": 12.3222}, {"postal_code": 14793, "postal_code_5": "14793", "city": "Ziesar", "state": "Brandenburg", "district": "Landkreis Potsdam-Mittelmark", "lat": 52.2405, "long": 12.3471}, {"postal_code": 14797, "postal_code_5": "14797", "city": "Kloster Lehnin", "state": "Brandenburg", "district": "Landkreis Potsdam-Mittelmark", "lat": 52.3271, "long": 12.6625}, {"postal_code": 14798, "postal_code_5": "14798", "city": "Havelsee", "state": "Brandenburg", "district": "Landkreis Potsdam-Mittelmark", "lat": 52.4929, "long": 12.4667}, {"postal_code": 14806, "postal_code_5": "14806", "city": "Belzig", "state": "Brandenburg", "district": "Landkreis Potsdam-Mittelmark", "lat": 52.1333, "long": 12.6}, {"postal_code": 14806, "postal_code_5": "14806", "city": "Schwanebeck", "state": "Brandenburg", "district": "Landkreis Potsdam-Mittelmark", "lat": 52.1765, "long": 12.6272}, {"postal_code": 14806, "postal_code_5": "14806", "city": "Planetal", "state": "Brandenburg", "district": "Landkreis Potsdam-Mittelmark", "lat": 52.1167, "long": 12.6767}, {"postal_code": 14806, "postal_code_5": "14806", "city": "Hagelberg", "state": "Brandenburg", "district": "Landkreis Potsdam-Mittelmark", "lat": 52.1386, "long": 12.5196}, {"postal_code": 14822, "postal_code_5": "14822", "city": "Borkheide", "state": "Brandenburg", "district": "Landkreis Potsdam-Mittelmark", "lat": 52.2167, "long": 12.85}, {"postal_code": 14822, "postal_code_5": "14822", "city": "Br\u00fcck", "state": "Brandenburg", "district": "Landkreis Potsdam-Mittelmark", "lat": 52.1977, "long": 12.7687}, {"postal_code": 14822, "postal_code_5": "14822", "city": "Borkwalde", "state": "Brandenburg", "district": "Landkreis Potsdam-Mittelmark", "lat": 52.25, "long": 12.8333}, {"postal_code": 14822, "postal_code_5": "14822", "city": "Planebruch", "state": "Brandenburg", "district": "Landkreis Potsdam-Mittelmark", "lat": 52.2542, "long": 12.6875}, {"postal_code": 14822, "postal_code_5": "14822", "city": "Linthe", "state": "Brandenburg", "district": "Landkreis Potsdam-Mittelmark", "lat": 52.1975, "long": 12.7851}, {"postal_code": 14822, "postal_code_5": "14822", "city": "M\u00fchlenflie\u00df", "state": "Brandenburg", "district": "Landkreis Potsdam-Mittelmark", "lat": 52.1194, "long": 12.7917}, {"postal_code": 14823, "postal_code_5": "14823", "city": "Niemegk", "state": "Brandenburg", "district": "Landkreis Potsdam-Mittelmark", "lat": 52.0531, "long": 12.6185}, {"postal_code": 14823, "postal_code_5": "14823", "city": "Rabenstein/Fl\u00e4ming", "state": "Brandenburg", "district": "Landkreis Potsdam-Mittelmark", "lat": 52.0333, "long": 12.6313}, {"postal_code": 14823, "postal_code_5": "14823", "city": "M\u00fchlenflie\u00df", "state": "Brandenburg", "district": "Landkreis Potsdam-Mittelmark", "lat": 52.1194, "long": 12.7917}, {"postal_code": 14827, "postal_code_5": "14827", "city": "Wiesenburg", "state": "Brandenburg", "district": "Landkreis Potsdam-Mittelmark", "lat": 52.1146, "long": 12.4553}, {"postal_code": 14828, "postal_code_5": "14828", "city": "G\u00f6rzke", "state": "Brandenburg", "district": "Landkreis Potsdam-Mittelmark", "lat": 52.1718, "long": 12.3751}, {"postal_code": 14913, "postal_code_5": "14913", "city": "Ihlow", "state": "Brandenburg", "district": "Landkreis Teltow-Fl\u00e4ming", "lat": 51.8672, "long": 13.3377}, {"postal_code": 14913, "postal_code_5": "14913", "city": "Wahlsdorf", "state": "Brandenburg", "district": "Landkreis Teltow-Fl\u00e4ming", "lat": 51.9562, "long": 13.3278}, {"postal_code": 14913, "postal_code_5": "14913", "city": "J\u00fcterbog", "state": "Brandenburg", "district": "Landkreis Teltow-Fl\u00e4ming", "lat": 51.9961, "long": 13.0798}, {"postal_code": 14913, "postal_code_5": "14913", "city": "Herbersdorf", "state": "Brandenburg", "district": "Landkreis Teltow-Fl\u00e4ming", "lat": 51.8618, "long": 13.295}, {"postal_code": 14913, "postal_code_5": "14913", "city": "Hohenseefeld", "state": "Brandenburg", "district": "Landkreis Teltow-Fl\u00e4ming", "lat": 51.8895, "long": 13.305}, {"postal_code": 14913, "postal_code_5": "14913", "city": "Niederer Fl\u00e4ming", "state": "Brandenburg", "district": "Landkreis Teltow-Fl\u00e4ming", "lat": 51.9025, "long": 13.2092}, {"postal_code": 14913, "postal_code_5": "14913", "city": "Niederg\u00f6rsdorf", "state": "Brandenburg", "district": "Landkreis Teltow-Fl\u00e4ming", "lat": 51.9794, "long": 12.9854}, {"postal_code": 14913, "postal_code_5": "14913", "city": "Nuthe-Urstromtal", "state": "Brandenburg", "district": "Landkreis Teltow-Fl\u00e4ming", "lat": 52.1116, "long": 13.2152}, {"postal_code": 14913, "postal_code_5": "14913", "city": "Niebendorf-Heinsdorf", "state": "Brandenburg", "district": "Landkreis Teltow-Fl\u00e4ming", "lat": 51.9333, "long": 13.3333}, {"postal_code": 14929, "postal_code_5": "14929", "city": "Treuenbrietzen", "state": "Brandenburg", "district": "Landkreis Potsdam-Mittelmark", "lat": 52.0975, "long": 12.8726}, {"postal_code": 14943, "postal_code_5": "14943", "city": "Luckenwalde", "state": "Brandenburg", "district": "Landkreis Teltow-Fl\u00e4ming", "lat": 52.0903, "long": 13.1677}, {"postal_code": 14943, "postal_code_5": "14943", "city": "L\u00fchsdorf", "state": "Brandenburg", "district": "Landkreis Potsdam-Mittelmark", "lat": 52.1564, "long": 12.9703}, {"postal_code": 14943, "postal_code_5": "14943", "city": "L\u00fcdersdorf", "state": "Brandenburg", "district": "Landkreis Teltow-Fl\u00e4ming", "lat": 52.1858, "long": 13.2899}, {"postal_code": 14947, "postal_code_5": "14947", "city": "Nuthe-Urstromtal", "state": "Brandenburg", "district": "Landkreis Teltow-Fl\u00e4ming", "lat": 52.1116, "long": 13.2152}, {"postal_code": 14959, "postal_code_5": "14959", "city": "Trebbin", "state": "Brandenburg", "district": "Landkreis Teltow-Fl\u00e4ming", "lat": 52.2168, "long": 13.225}, {"postal_code": 14959, "postal_code_5": "14959", "city": "Sch\u00f6nhagen", "state": "Brandenburg", "district": "Landkreis Teltow-Fl\u00e4ming", "lat": 52.213, "long": 13.1464}, {"postal_code": 14974, "postal_code_5": "14974", "city": "Ludwigsfelde", "state": "Brandenburg", "district": "Landkreis Teltow-Fl\u00e4ming", "lat": 52.3032, "long": 13.254}, {"postal_code": 14974, "postal_code_5": "14974", "city": "Thyrow", "state": "Brandenburg", "district": "Landkreis Teltow-Fl\u00e4ming", "lat": 52.2526, "long": 13.2396}, {"postal_code": 14979, "postal_code_5": "14979", "city": "Gro\u00dfbeeren", "state": "Brandenburg", "district": "Landkreis Teltow-Fl\u00e4ming", "lat": 52.3586, "long": 13.3099}, {"postal_code": 15230, "postal_code_5": "15230", "city": "Frankfurt (Oder)", "state": "Brandenburg", "district": "Frankfurt (Oder)", "lat": 52.3475, "long": 14.5539}, {"postal_code": 15232, "postal_code_5": "15232", "city": "Frankfurt (Oder)", "state": "Brandenburg", "district": "Frankfurt (Oder)", "lat": 52.3241, "long": 14.5325}, {"postal_code": 15234, "postal_code_5": "15234", "city": "Frankfurt (Oder)", "state": "Brandenburg", "district": "Frankfurt (Oder)", "lat": 52.3646, "long": 14.5244}, {"postal_code": 15236, "postal_code_5": "15236", "city": "Jacobsdorf Sieversdorf", "state": "Brandenburg", "district": "Landkreis Oder-Spree", "lat": 52.3833, "long": 14.3667}, {"postal_code": 15236, "postal_code_5": "15236", "city": "Jacobsdorf Pillgram", "state": "Brandenburg", "district": "Landkreis Oder-Spree", "lat": 52.3333, "long": 14.4}, {"postal_code": 15236, "postal_code_5": "15236", "city": "Jacobsdorf Petersdorf bei Briesen", "state": "Brandenburg", "district": "Landkreis Oder-Spree", "lat": 52.3667, "long": 14.35}, {"postal_code": 15236, "postal_code_5": "15236", "city": "Treplin", "state": "Brandenburg", "district": "Landkreis M\u00e4rkisch-Oderland", "lat": 52.4, "long": 14.4}, {"postal_code": 15236, "postal_code_5": "15236", "city": "Jacobsdorf Jacobsdorf", "state": "Brandenburg", "district": "Landkreis Oder-Spree", "lat": 52.3345, "long": 14.4179}, {"postal_code": 15236, "postal_code_5": "15236", "city": "Jacobsdorf", "state": "Brandenburg", "district": "Landkreis Oder-Spree", "lat": 52.3333, "long": 14.35}, {"postal_code": 15236, "postal_code_5": "15236", "city": "Frankfurt (Oder)", "state": "Brandenburg", "district": "Frankfurt (Oder)", "lat": 52.35, "long": 14.55}, {"postal_code": 15295, "postal_code_5": "15295", "city": "Wiesenau", "state": "Brandenburg", "district": "Landkreis Oder-Spree", "lat": 52.2307, "long": 14.5911}, {"postal_code": 15295, "postal_code_5": "15295", "city": "Ziltendorf Ernst-Th\u00e4lmann-Siedlung", "state": "Brandenburg", "district": "Landkreis Oder-Spree", "lat": 52.2333, "long": 14.6333}, {"postal_code": 15295, "postal_code_5": "15295", "city": "Ziltendorf", "state": "Brandenburg", "district": "Landkreis Oder-Spree", "lat": 52.2061, "long": 14.6241}, {"postal_code": 15295, "postal_code_5": "15295", "city": "Gro\u00df Lindow", "state": "Brandenburg", "district": "Landkreis Oder-Spree", "lat": 52.2333, "long": 14.5333}, {"postal_code": 15295, "postal_code_5": "15295", "city": "Ziltendorf Aurith", "state": "Brandenburg", "district": "Landkreis Oder-Spree", "lat": 52.25, "long": 14.6833}, {"postal_code": 15295, "postal_code_5": "15295", "city": "Gro\u00df Lindow Schlaubehammer", "state": "Brandenburg", "district": "Landkreis Oder-Spree", "lat": 52.25, "long": 14.4833}, {"postal_code": 15295, "postal_code_5": "15295", "city": "Brieskow-Finkenheerd", "state": "Brandenburg", "district": "Landkreis Oder-Spree", "lat": 52.2539, "long": 14.5728}, {"postal_code": 15295, "postal_code_5": "15295", "city": "Gro\u00df Lindow Wei\u00dfenspring", "state": "Brandenburg", "district": "Landkreis Oder-Spree", "lat": 52.2333, "long": 14.5167}, {"postal_code": 15299, "postal_code_5": "15299", "city": "Grunow-Dammendorf Grunow", "state": "Brandenburg", "district": "Landkreis Oder-Spree", "lat": 52.15, "long": 14.4}, {"postal_code": 15299, "postal_code_5": "15299", "city": "Mixdorf", "state": "Brandenburg", "district": "Landkreis Oder-Spree", "lat": 52.2, "long": 14.4}, {"postal_code": 15299, "postal_code_5": "15299", "city": "M\u00fcllrose", "state": "Brandenburg", "district": "Landkreis Oder-Spree", "lat": 52.2474, "long": 14.4179}, {"postal_code": 15299, "postal_code_5": "15299", "city": "Grunow-Dammendorf", "state": "Brandenburg", "district": "Landkreis Oder-Spree", "lat": 52.15, "long": 14.4083}, {"postal_code": 15299, "postal_code_5": "15299", "city": "Dammendorf", "state": "Brandenburg", "district": "Landkreis Oder-Spree", "lat": 52.1408, "long": 14.416}, {"postal_code": 15306, "postal_code_5": "15306", "city": "Seelow", "state": "Brandenburg", "district": "Landkreis M\u00e4rkisch-Oderland", "lat": 52.5339, "long": 14.3813}, {"postal_code": 15306, "postal_code_5": "15306", "city": "Vierlinden Neuentempel", "state": "Brandenburg", "district": "Landkreis M\u00e4rkisch-Oderland", "lat": 52.502, "long": 14.3265}, {"postal_code": 15306, "postal_code_5": "15306", "city": "Werbig", "state": "Brandenburg", "district": "Landkreis M\u00e4rkisch-Oderland", "lat": 52.5617, "long": 14.3848}, {"postal_code": 15306, "postal_code_5": "15306", "city": "Vierlinden Diedersdorf", "state": "Brandenburg", "district": "Landkreis M\u00e4rkisch-Oderland", "lat": 52.5121, "long": 14.3311}, {"postal_code": 15306, "postal_code_5": "15306", "city": "Vierlinden Worin", "state": "Brandenburg", "district": "Landkreis M\u00e4rkisch-Oderland", "lat": 52.5206, "long": 14.2749}, {"postal_code": 15306, "postal_code_5": "15306", "city": "Vierlinden Marxdorf", "state": "Brandenburg", "district": "Landkreis M\u00e4rkisch-Oderland", "lat": 52.483, "long": 14.28}, {"postal_code": 15306, "postal_code_5": "15306", "city": "Vierlinden", "state": "Brandenburg", "district": "Landkreis M\u00e4rkisch-Oderland", "lat": 52.515, "long": 14.3141}, {"postal_code": 15306, "postal_code_5": "15306", "city": "Gusow-Platkow Platkow", "state": "Brandenburg", "district": "Landkreis M\u00e4rkisch-Oderland", "lat": 52.5835, "long": 14.3244}, {"postal_code": 15306, "postal_code_5": "15306", "city": "Fichtenh\u00f6he Alt Mahlisch", "state": "Brandenburg", "district": "Landkreis M\u00e4rkisch-Oderland", "lat": 52.4641, "long": 14.4209}, {"postal_code": 15306, "postal_code_5": "15306", "city": "Gusow-Platkow Gusow", "state": "Brandenburg", "district": "Landkreis M\u00e4rkisch-Oderland", "lat": 52.5719, "long": 14.3556}, {"postal_code": 15306, "postal_code_5": "15306", "city": "Lindendorf", "state": "Brandenburg", "district": "Landkreis M\u00e4rkisch-Oderland", "lat": 52.4899, "long": 14.4285}, {"postal_code": 15306, "postal_code_5": "15306", "city": "Gusow-Platkow", "state": "Brandenburg", "district": "Landkreis M\u00e4rkisch-Oderland", "lat": 52.5777, "long": 14.34}, {"postal_code": 15306, "postal_code_5": "15306", "city": "Lindendorf Neu Mahlisch", "state": "Brandenburg", "district": "Landkreis M\u00e4rkisch-Oderland", "lat": 52.4802, "long": 14.3898}, {"postal_code": 15306, "postal_code_5": "15306", "city": "Fichtenh\u00f6he Niederjesar", "state": "Brandenburg", "district": "Landkreis M\u00e4rkisch-Oderland", "lat": 52.4449, "long": 14.4324}, {"postal_code": 15306, "postal_code_5": "15306", "city": "Lietzen", "state": "Brandenburg", "district": "Landkreis M\u00e4rkisch-Oderland", "lat": 52.4699, "long": 14.3401}, {"postal_code": 15306, "postal_code_5": "15306", "city": "Vierlinden Friedersdorf", "state": "Brandenburg", "district": "Landkreis M\u00e4rkisch-Oderland", "lat": 52.5102, "long": 14.3987}, {"postal_code": 15306, "postal_code_5": "15306", "city": "Fichtenh\u00f6he", "state": "Brandenburg", "district": "Landkreis M\u00e4rkisch-Oderland", "lat": 52.4556, "long": 14.4469}, {"postal_code": 15306, "postal_code_5": "15306", "city": "Falkenhagen", "state": "Brandenburg", "district": "Landkreis M\u00e4rkisch-Oderland", "lat": 52.4333, "long": 14.3167}, {"postal_code": 15306, "postal_code_5": "15306", "city": "Vierlinden Alt Rosenthal", "state": "Brandenburg", "district": "Landkreis M\u00e4rkisch-Oderland", "lat": 52.5471, "long": 14.277}, {"postal_code": 15306, "postal_code_5": "15306", "city": "Vierlinden G\u00f6rlsdorf", "state": "Brandenburg", "district": "Landkreis M\u00e4rkisch-Oderland", "lat": 52.5299, "long": 14.3107}, {"postal_code": 15306, "postal_code_5": "15306", "city": "Lindendorf Dolgelin", "state": "Brandenburg", "district": "Landkreis M\u00e4rkisch-Oderland", "lat": 52.4955, "long": 14.4071}, {"postal_code": 15306, "postal_code_5": "15306", "city": "Lindendorf Sachsendorf", "state": "Brandenburg", "district": "Landkreis M\u00e4rkisch-Oderland", "lat": 52.5063, "long": 14.4804}, {"postal_code": 15306, "postal_code_5": "15306", "city": "Lindendorf Libbenichen", "state": "Brandenburg", "district": "Landkreis M\u00e4rkisch-Oderland", "lat": 52.4775, "long": 14.4367}, {"postal_code": 15320, "postal_code_5": "15320", "city": "Neutrebbin Alttrebbin", "state": "Brandenburg", "district": "Landkreis M\u00e4rkisch-Oderland", "lat": 52.6908, "long": 14.2481}, {"postal_code": 15320, "postal_code_5": "15320", "city": "Neuhardenberg", "state": "Brandenburg", "district": "Landkreis M\u00e4rkisch-Oderland", "lat": 52.596, "long": 14.2377}, {"postal_code": 15320, "postal_code_5": "15320", "city": "Neutrebbin", "state": "Brandenburg", "district": "Landkreis M\u00e4rkisch-Oderland", "lat": 52.6648, "long": 14.228}, {"postal_code": 15320, "postal_code_5": "15320", "city": "Neutrebbin Neutrebbin", "state": "Brandenburg", "district": "Landkreis M\u00e4rkisch-Oderland", "lat": 52.6667, "long": 14.2333}, {"postal_code": 15320, "postal_code_5": "15320", "city": "Sietzing", "state": "Brandenburg", "district": "Landkreis M\u00e4rkisch-Oderland", "lat": 52.6594, "long": 14.286}, {"postal_code": 15320, "postal_code_5": "15320", "city": "Neutrebbin Altbarnim", "state": "Brandenburg", "district": "Landkreis M\u00e4rkisch-Oderland", "lat": 52.6857, "long": 14.2808}, {"postal_code": 15320, "postal_code_5": "15320", "city": "Neuhardenberg Neuhardenberg", "state": "Brandenburg", "district": "Landkreis M\u00e4rkisch-Oderland", "lat": 52.5955, "long": 14.2402}, {"postal_code": 15320, "postal_code_5": "15320", "city": "Neuhardenberg Altfriedland", "state": "Brandenburg", "district": "Landkreis M\u00e4rkisch-Oderland", "lat": 52.6274, "long": 14.2135}, {"postal_code": 15320, "postal_code_5": "15320", "city": "Neuhardenberg Quappendorf", "state": "Brandenburg", "district": "Landkreis M\u00e4rkisch-Oderland", "lat": 52.6186, "long": 14.2669}, {"postal_code": 15320, "postal_code_5": "15320", "city": "Neuhardenberg Wulkow bei Trebnitz", "state": "Brandenburg", "district": "Landkreis M\u00e4rkisch-Oderland", "lat": 52.5697, "long": 14.2351}, {"postal_code": 15324, "postal_code_5": "15324", "city": "Letschin", "state": "Brandenburg", "district": "Landkreis M\u00e4rkisch-Oderland", "lat": 52.6438, "long": 14.3601}, {"postal_code": 15324, "postal_code_5": "15324", "city": "Neubarnim", "state": "Brandenburg", "district": "Landkreis M\u00e4rkisch-Oderland", "lat": 52.7025, "long": 14.3056}, {"postal_code": 15324, "postal_code_5": "15324", "city": "Kiehnwerder", "state": "Brandenburg", "district": "Landkreis M\u00e4rkisch-Oderland", "lat": 52.6316, "long": 14.303}, {"postal_code": 15324, "postal_code_5": "15324", "city": "Kienitz", "state": "Brandenburg", "district": "Landkreis M\u00e4rkisch-Oderland", "lat": 52.6731, "long": 14.4389}, {"postal_code": 15324, "postal_code_5": "15324", "city": "Gro\u00df Neuendorf", "state": "Brandenburg", "district": "Landkreis M\u00e4rkisch-Oderland", "lat": 52.7005, "long": 14.4081}, {"postal_code": 15324, "postal_code_5": "15324", "city": "Gieshof-Zelliner Loose", "state": "Brandenburg", "district": "Landkreis M\u00e4rkisch-Oderland", "lat": 52.7237, "long": 14.3174}, {"postal_code": 15324, "postal_code_5": "15324", "city": "Ortwig", "state": "Brandenburg", "district": "Landkreis M\u00e4rkisch-Oderland", "lat": 52.7039, "long": 14.3562}, {"postal_code": 15326, "postal_code_5": "15326", "city": "Podelzig", "state": "Brandenburg", "district": "Landkreis M\u00e4rkisch-Oderland", "lat": 52.4717, "long": 14.5347}, {"postal_code": 15326, "postal_code_5": "15326", "city": "Lebus Sch\u00f6nflie\u00df", "state": "Brandenburg", "district": "Landkreis M\u00e4rkisch-Oderland", "lat": 52.4212, "long": 14.4735}, {"postal_code": 15326, "postal_code_5": "15326", "city": "Lebus", "state": "Brandenburg", "district": "Landkreis M\u00e4rkisch-Oderland", "lat": 52.4272, "long": 14.5323}, {"postal_code": 15326, "postal_code_5": "15326", "city": "Fichtenh\u00f6he Carzig", "state": "Brandenburg", "district": "Landkreis M\u00e4rkisch-Oderland", "lat": 52.4579, "long": 14.4875}, {"postal_code": 15326, "postal_code_5": "15326", "city": "Zeschdorf", "state": "Brandenburg", "district": "Landkreis M\u00e4rkisch-Oderland", "lat": 52.4213, "long": 14.3875}, {"postal_code": 15326, "postal_code_5": "15326", "city": "Zeschdorf D\u00f6bberin", "state": "Brandenburg", "district": "Landkreis M\u00e4rkisch-Oderland", "lat": 52.4414, "long": 14.3736}, {"postal_code": 15326, "postal_code_5": "15326", "city": "Zeschdorf Petershagen", "state": "Brandenburg", "district": "Landkreis M\u00e4rkisch-Oderland", "lat": 52.3978, "long": 14.3425}, {"postal_code": 15326, "postal_code_5": "15326", "city": "Fichtenh\u00f6he", "state": "Brandenburg", "district": "Landkreis M\u00e4rkisch-Oderland", "lat": 52.4556, "long": 14.4469}, {"postal_code": 15326, "postal_code_5": "15326", "city": "Lebus Lebus", "state": "Brandenburg", "district": "Landkreis M\u00e4rkisch-Oderland", "lat": 52.4236, "long": 14.533}, {"postal_code": 15326, "postal_code_5": "15326", "city": "Lebus Mallnow", "state": "Brandenburg", "district": "Landkreis M\u00e4rkisch-Oderland", "lat": 52.456, "long": 14.4926}, {"postal_code": 15326, "postal_code_5": "15326", "city": "Zeschdorf Alt Zeschdorf", "state": "Brandenburg", "district": "Landkreis M\u00e4rkisch-Oderland", "lat": 52.4248, "long": 14.4465}, {"postal_code": 15326, "postal_code_5": "15326", "city": "Lebus Wulkow", "state": "Brandenburg", "district": "Landkreis M\u00e4rkisch-Oderland", "lat": 52.4021, "long": 14.4715}, {"postal_code": 15328, "postal_code_5": "15328", "city": "Zechin Friedrichsaue", "state": "Brandenburg", "district": "Landkreis M\u00e4rkisch-Oderland", "lat": 52.5982, "long": 14.4726}, {"postal_code": 15328, "postal_code_5": "15328", "city": "Alt Tucheband", "state": "Brandenburg", "district": "Landkreis M\u00e4rkisch-Oderland", "lat": 52.5373, "long": 14.5123}, {"postal_code": 15328, "postal_code_5": "15328", "city": "Zechin Buschdorf", "state": "Brandenburg", "district": "Landkreis M\u00e4rkisch-Oderland", "lat": 52.6023, "long": 14.4403}, {"postal_code": 15328, "postal_code_5": "15328", "city": "K\u00fcstriner Vorland", "state": "Brandenburg", "district": "Landkreis M\u00e4rkisch-Oderland", "lat": 52.5624, "long": 14.5728}, {"postal_code": 15328, "postal_code_5": "15328", "city": "Zechin", "state": "Brandenburg", "district": "Landkreis M\u00e4rkisch-Oderland", "lat": 52.6084, "long": 14.4525}, {"postal_code": 15328, "postal_code_5": "15328", "city": "Golzow", "state": "Brandenburg", "district": "Landkreis M\u00e4rkisch-Oderland", "lat": 52.574, "long": 14.493}, {"postal_code": 15328, "postal_code_5": "15328", "city": "Reitwein", "state": "Brandenburg", "district": "Landkreis M\u00e4rkisch-Oderland", "lat": 52.5009, "long": 14.5817}, {"postal_code": 15328, "postal_code_5": "15328", "city": "Zechin Zechin", "state": "Brandenburg", "district": "Landkreis M\u00e4rkisch-Oderland", "lat": 52.6124, "long": 14.4579}, {"postal_code": 15328, "postal_code_5": "15328", "city": "K\u00fcstriner Vorland Manschnow", "state": "Brandenburg", "district": "Landkreis M\u00e4rkisch-Oderland", "lat": 52.5521, "long": 14.5564}, {"postal_code": 15328, "postal_code_5": "15328", "city": "Bleyen-Genschmar Genschmar", "state": "Brandenburg", "district": "Landkreis M\u00e4rkisch-Oderland", "lat": 52.6155, "long": 14.5187}, {"postal_code": 15328, "postal_code_5": "15328", "city": "Alt Tucheband Hathenow", "state": "Brandenburg", "district": "Landkreis M\u00e4rkisch-Oderland", "lat": 52.5041, "long": 14.5357}, {"postal_code": 15328, "postal_code_5": "15328", "city": "K\u00fcstriner Vorland Gorgast", "state": "Brandenburg", "district": "Landkreis M\u00e4rkisch-Oderland", "lat": 52.5682, "long": 14.5515}, {"postal_code": 15328, "postal_code_5": "15328", "city": "Bleyen-Genschmar", "state": "Brandenburg", "district": "Landkreis M\u00e4rkisch-Oderland", "lat": 52.6017, "long": 14.5646}, {"postal_code": 15328, "postal_code_5": "15328", "city": "Alt Tucheband Alt Tucheband", "state": "Brandenburg", "district": "Landkreis M\u00e4rkisch-Oderland", "lat": 52.5386, "long": 14.5134}, {"postal_code": 15328, "postal_code_5": "15328", "city": "Alt Tucheband Ratstock", "state": "Brandenburg", "district": "Landkreis M\u00e4rkisch-Oderland", "lat": 52.5215, "long": 14.5412}, {"postal_code": 15328, "postal_code_5": "15328", "city": "K\u00fcstriner Vorland K\u00fcstrin-Kietz", "state": "Brandenburg", "district": "Landkreis M\u00e4rkisch-Oderland", "lat": 52.5668, "long": 14.6105}, {"postal_code": 15328, "postal_code_5": "15328", "city": "Bleyen-Genschmar Bleyen", "state": "Brandenburg", "district": "Landkreis M\u00e4rkisch-Oderland", "lat": 52.588, "long": 14.6105}, {"postal_code": 15344, "postal_code_5": "15344", "city": "Strausberg", "state": "Brandenburg", "district": "Landkreis M\u00e4rkisch-Oderland", "lat": 52.5786, "long": 13.8874}, {"postal_code": 15345, "postal_code_5": "15345", "city": "Lichtenow", "state": "Brandenburg", "district": "Landkreis M\u00e4rkisch-Oderland", "lat": 52.4797, "long": 13.9114}, {"postal_code": 15345, "postal_code_5": "15345", "city": "Pr\u00f6tzel", "state": "Brandenburg", "district": "Landkreis M\u00e4rkisch-Oderland", "lat": 52.6372, "long": 13.9878}, {"postal_code": 15345, "postal_code_5": "15345", "city": "Pr\u00f6tzel Sternebeck", "state": "Brandenburg", "district": "Landkreis M\u00e4rkisch-Oderland", "lat": 52.6748, "long": 13.9937}, {"postal_code": 15345, "postal_code_5": "15345", "city": "Rehfelde Zinndorf", "state": "Brandenburg", "district": "Landkreis M\u00e4rkisch-Oderland", "lat": 52.5027, "long": 13.9256}, {"postal_code": 15345, "postal_code_5": "15345", "city": "Werder", "state": "Brandenburg", "district": "Landkreis M\u00e4rkisch-Oderland", "lat": 52.52, "long": 13.9442}, {"postal_code": 15345, "postal_code_5": "15345", "city": "Rehfelde Rehfelde", "state": "Brandenburg", "district": "Landkreis M\u00e4rkisch-Oderland", "lat": 52.5368, "long": 13.9156}, {"postal_code": 15345, "postal_code_5": "15345", "city": "Garzau-Garzin Garzin", "state": "Brandenburg", "district": "Landkreis M\u00e4rkisch-Oderland", "lat": 52.5457, "long": 13.9822}, {"postal_code": 15345, "postal_code_5": "15345", "city": "Zinndorf", "state": "Brandenburg", "district": "Landkreis M\u00e4rkisch-Oderland", "lat": 52.5015, "long": 13.9225}, {"postal_code": 15345, "postal_code_5": "15345", "city": "Oberbarnim", "state": "Brandenburg", "district": "Landkreis M\u00e4rkisch-Oderland", "lat": 52.5938, "long": 14.0355}, {"postal_code": 15345, "postal_code_5": "15345", "city": "Rehfelde", "state": "Brandenburg", "district": "Landkreis M\u00e4rkisch-Oderland", "lat": 52.5342, "long": 13.9088}, {"postal_code": 15345, "postal_code_5": "15345", "city": "Garzau-Garzin", "state": "Brandenburg", "district": "Landkreis M\u00e4rkisch-Oderland", "lat": 52.5382, "long": 13.9667}, {"postal_code": 15345, "postal_code_5": "15345", "city": "Altlandsberg", "state": "Brandenburg", "district": "Landkreis M\u00e4rkisch-Oderland", "lat": 52.565, "long": 13.7281}, {"postal_code": 15345, "postal_code_5": "15345", "city": "Rehfelde Werder", "state": "Brandenburg", "district": "Landkreis M\u00e4rkisch-Oderland", "lat": 52.5205, "long": 13.9462}, {"postal_code": 15345, "postal_code_5": "15345", "city": "Petershagen-Eggersdorf", "state": "Brandenburg", "district": "Landkreis M\u00e4rkisch-Oderland", "lat": 52.525, "long": 13.8}, {"postal_code": 15345, "postal_code_5": "15345", "city": "Reichenow-M\u00f6glin", "state": "Brandenburg", "district": "Landkreis M\u00e4rkisch-Oderland", "lat": 52.6562, "long": 14.0937}, {"postal_code": 15345, "postal_code_5": "15345", "city": "Garzau-Garzin Garzau", "state": "Brandenburg", "district": "Landkreis M\u00e4rkisch-Oderland", "lat": 52.5307, "long": 13.9511}, {"postal_code": 15345, "postal_code_5": "15345", "city": "Reichenow-M\u00f6glin M\u00f6glin", "state": "Brandenburg", "district": "Landkreis M\u00e4rkisch-Oderland", "lat": 52.6653, "long": 14.11}, {"postal_code": 15345, "postal_code_5": "15345", "city": "Oberbarnim Klosterdorf", "state": "Brandenburg", "district": "Landkreis M\u00e4rkisch-Oderland", "lat": 52.5914, "long": 13.9569}, {"postal_code": 15345, "postal_code_5": "15345", "city": "Pr\u00f6tzel Pr\u00e4dikow", "state": "Brandenburg", "district": "Landkreis M\u00e4rkisch-Oderland", "lat": 52.6159, "long": 14.0177}, {"postal_code": 15345, "postal_code_5": "15345", "city": "Pr\u00f6tzel Harnekop", "state": "Brandenburg", "district": "Landkreis M\u00e4rkisch-Oderland", "lat": 52.6844, "long": 14.0137}, {"postal_code": 15345, "postal_code_5": "15345", "city": "Pr\u00f6tzel Pr\u00f6tzel", "state": "Brandenburg", "district": "Landkreis M\u00e4rkisch-Oderland", "lat": 52.6391, "long": 13.9895}, {"postal_code": 15345, "postal_code_5": "15345", "city": "Reichenow-M\u00f6glin Reichenow", "state": "Brandenburg", "district": "Landkreis M\u00e4rkisch-Oderland", "lat": 52.647, "long": 14.0775}, {"postal_code": 15366, "postal_code_5": "15366", "city": "Neuenhagen bei Berlin", "state": "Brandenburg", "district": "Landkreis M\u00e4rkisch-Oderland", "lat": 52.5333, "long": 13.6833}, {"postal_code": 15366, "postal_code_5": "15366", "city": "M\u00fcnchehofe", "state": "Brandenburg", "district": "Landkreis M\u00e4rkisch-Oderland", "lat": 52.5562, "long": 14.1376}, {"postal_code": 15366, "postal_code_5": "15366", "city": "Dahlwitz-Hoppegarten", "state": "Brandenburg", "district": "Landkreis M\u00e4rkisch-Oderland", "lat": 52.5167, "long": 13.6667}, {"postal_code": 15366, "postal_code_5": "15366", "city": "H\u00f6now", "state": "Brandenburg", "district": "Landkreis M\u00e4rkisch-Oderland", "lat": 52.5467, "long": 13.6376}, {"postal_code": 15370, "postal_code_5": "15370", "city": "Petershagen-Eggersdorf", "state": "Brandenburg", "district": "Landkreis M\u00e4rkisch-Oderland", "lat": 52.525, "long": 13.8}, {"postal_code": 15370, "postal_code_5": "15370", "city": "Fredersdorf-Vogelsdorf", "state": "Brandenburg", "district": "Landkreis M\u00e4rkisch-Oderland", "lat": 52.5, "long": 13.7333}, {"postal_code": 15372, "postal_code_5": "15372", "city": "M\u00fcncheberg", "state": "Brandenburg", "district": "Landkreis M\u00e4rkisch-Oderland", "lat": 52.5, "long": 14.1333}, {"postal_code": 15374, "postal_code_5": "15374", "city": "M\u00fcncheberg", "state": "Brandenburg", "district": "Landkreis M\u00e4rkisch-Oderland", "lat": 52.5114, "long": 14.1359}, {"postal_code": 15377, "postal_code_5": "15377", "city": "Oberbarnim", "state": "Brandenburg", "district": "Landkreis M\u00e4rkisch-Oderland", "lat": 52.5938, "long": 14.0355}, {"postal_code": 15377, "postal_code_5": "15377", "city": "M\u00e4rkische H\u00f6he Ringenwalde", "state": "Brandenburg", "district": "Landkreis M\u00e4rkisch-Oderland", "lat": 52.6173, "long": 14.1459}, {"postal_code": 15377, "postal_code_5": "15377", "city": "Waldsieversdorf", "state": "Brandenburg", "district": "Landkreis M\u00e4rkisch-Oderland", "lat": 52.5422, "long": 14.0702}, {"postal_code": 15377, "postal_code_5": "15377", "city": "Ihlow", "state": "Brandenburg", "district": "Landkreis M\u00e4rkisch-Oderland", "lat": 52.619, "long": 14.0708}, {"postal_code": 15377, "postal_code_5": "15377", "city": "Oberbarnim Grunow", "state": "Brandenburg", "district": "Landkreis M\u00e4rkisch-Oderland", "lat": 52.6028, "long": 14.032}, {"postal_code": 15377, "postal_code_5": "15377", "city": "Buckow", "state": "Brandenburg", "district": "Landkreis M\u00e4rkisch-Oderland", "lat": 52.5661, "long": 14.0743}, {"postal_code": 15377, "postal_code_5": "15377", "city": "M\u00e4rkische H\u00f6he Reichenberg", "state": "Brandenburg", "district": "Landkreis M\u00e4rkisch-Oderland", "lat": 52.6109, "long": 14.1165}, {"postal_code": 15377, "postal_code_5": "15377", "city": "M\u00e4rkische H\u00f6he", "state": "Brandenburg", "district": "Landkreis M\u00e4rkisch-Oderland", "lat": 52.6199, "long": 14.1292}, {"postal_code": 15377, "postal_code_5": "15377", "city": "Oberbarnim Bollersdorf, Pritzhagen", "state": "Brandenburg", "district": "Landkreis M\u00e4rkisch-Oderland", "lat": 52.59, "long": 14.1038}, {"postal_code": 15377, "postal_code_5": "15377", "city": "Oberbarnim Bollersdorf, Bollersdorf", "state": "Brandenburg", "district": "Landkreis M\u00e4rkisch-Oderland", "lat": 52.5818, "long": 14.0528}, {"postal_code": 15377, "postal_code_5": "15377", "city": "Oberbarnim Grunow, Ernsthof", "state": "Brandenburg", "district": "Landkreis M\u00e4rkisch-Oderland", "lat": 52.5996, "long": 14.0261}, {"postal_code": 15377, "postal_code_5": "15377", "city": "Oberbarnim Bollersdorf", "state": "Brandenburg", "district": "Landkreis M\u00e4rkisch-Oderland", "lat": 52.5859, "long": 14.0783}, {"postal_code": 15377, "postal_code_5": "15377", "city": "M\u00e4rkische H\u00f6he Batzlow", "state": "Brandenburg", "district": "Landkreis M\u00e4rkisch-Oderland", "lat": 52.6316, "long": 14.125}, {"postal_code": 15377, "postal_code_5": "15377", "city": "Oberbarnim Grunow, Grunow", "state": "Brandenburg", "district": "Landkreis M\u00e4rkisch-Oderland", "lat": 52.606, "long": 14.0379}, {"postal_code": 15378, "postal_code_5": "15378", "city": "Hennickendorf", "state": "Brandenburg", "district": "Landkreis M\u00e4rkisch-Oderland", "lat": 52.5077, "long": 13.8521}, {"postal_code": 15378, "postal_code_5": "15378", "city": "Herzfelde", "state": "Brandenburg", "district": "Landkreis M\u00e4rkisch-Oderland", "lat": 52.4816, "long": 13.8521}, {"postal_code": 15517, "postal_code_5": "15517", "city": "F\u00fcrstenwalde/Spree", "state": "Brandenburg", "district": "Landkreis Oder-Spree", "lat": 52.3833, "long": 14.0583}, {"postal_code": 15517, "postal_code_5": "15517", "city": "F\u00fcrstenwalde/Spree Trebus", "state": "Brandenburg", "district": "Landkreis Oder-Spree", "lat": 52.4, "long": 14.05}, {"postal_code": 15517, "postal_code_5": "15517", "city": "F\u00fcrstenwalde/Spree F\u00fcrstenwalde", "state": "Brandenburg", "district": "Landkreis Oder-Spree", "lat": 52.3638, "long": 14.0467}, {"postal_code": 15518, "postal_code_5": "15518", "city": "Berkenbr\u00fcck", "state": "Brandenburg", "district": "Landkreis Oder-Spree", "lat": 52.35, "long": 14.15}, {"postal_code": 15518, "postal_code_5": "15518", "city": "Falkenberg", "state": "Brandenburg", "district": "Landkreis Oder-Spree", "lat": 52.3809, "long": 14.2353}, {"postal_code": 15518, "postal_code_5": "15518", "city": "Langewahl", "state": "Brandenburg", "district": "Landkreis Oder-Spree", "lat": 52.3333, "long": 14.1}, {"postal_code": 15518, "postal_code_5": "15518", "city": "Steinh\u00f6fel Heinersdorf", "state": "Brandenburg", "district": "Landkreis Oder-Spree", "lat": 52.45, "long": 14.2167}, {"postal_code": 15518, "postal_code_5": "15518", "city": "Steinh\u00f6fel J\u00e4nickendorf", "state": "Brandenburg", "district": "Landkreis Oder-Spree", "lat": 52.4333, "long": 14.0167}, {"postal_code": 15518, "postal_code_5": "15518", "city": "Steinh\u00f6fel Arensdorf", "state": "Brandenburg", "district": "Landkreis Oder-Spree", "lat": 52.4333, "long": 14.25}, {"postal_code": 15518, "postal_code_5": "15518", "city": "Steinh\u00f6fel Demnitz", "state": "Brandenburg", "district": "Landkreis Oder-Spree", "lat": 52.3833, "long": 14.2}, {"postal_code": 15518, "postal_code_5": "15518", "city": "Madlitz-Wilmersdorf Wilmersdorf", "state": "Brandenburg", "district": "Landkreis Oder-Spree", "lat": 52.4, "long": 14.2667}, {"postal_code": 15518, "postal_code_5": "15518", "city": "Rauen", "state": "Brandenburg", "district": "Landkreis Oder-Spree", "lat": 52.3323, "long": 14.028}, {"postal_code": 15518, "postal_code_5": "15518", "city": "Steinh\u00f6fel Hasenfelde", "state": "Brandenburg", "district": "Landkreis Oder-Spree", "lat": 52.4167, "long": 14.2167}, {"postal_code": 15518, "postal_code_5": "15518", "city": "Steinh\u00f6fel Tempelberg", "state": "Brandenburg", "district": "Landkreis Oder-Spree", "lat": 52.45, "long": 14.1667}, {"postal_code": 15518, "postal_code_5": "15518", "city": "Steinh\u00f6fel Buchholz", "state": "Brandenburg", "district": "Landkreis Oder-Spree", "lat": 52.4167, "long": 14.1167}, {"postal_code": 15518, "postal_code_5": "15518", "city": "Steinh\u00f6fel Beerfelde", "state": "Brandenburg", "district": "Landkreis Oder-Spree", "lat": 52.4333, "long": 14.05}, {"postal_code": 15518, "postal_code_5": "15518", "city": "Steinh\u00f6fel Sch\u00f6nfelde", "state": "Brandenburg", "district": "Landkreis Oder-Spree", "lat": 52.4667, "long": 14.05}, {"postal_code": 15518, "postal_code_5": "15518", "city": "Briesen (Mark)", "state": "Brandenburg", "district": "Landkreis Oder-Spree", "lat": 52.325, "long": 14.3}, {"postal_code": 15518, "postal_code_5": "15518", "city": "Briesen (Mark) Briesen (Mark)", "state": "Brandenburg", "district": "Landkreis Oder-Spree", "lat": 52.3333, "long": 14.2833}, {"postal_code": 15518, "postal_code_5": "15518", "city": "Steinh\u00f6fel G\u00f6lsdorf", "state": "Brandenburg", "district": "Landkreis Oder-Spree", "lat": 52.45, "long": 14.1}, {"postal_code": 15518, "postal_code_5": "15518", "city": "Steinh\u00f6fel", "state": "Brandenburg", "district": "Landkreis Oder-Spree", "lat": 52.4, "long": 14.1667}, {"postal_code": 15518, "postal_code_5": "15518", "city": "Steinh\u00f6fel Neuendorf im Sande", "state": "Brandenburg", "district": "Landkreis Oder-Spree", "lat": 52.3833, "long": 14.1}, {"postal_code": 15518, "postal_code_5": "15518", "city": "Steinh\u00f6fel Steinh\u00f6fel", "state": "Brandenburg", "district": "Landkreis Oder-Spree", "lat": 52.4, "long": 14.1667}, {"postal_code": 15518, "postal_code_5": "15518", "city": "Briesen (Mark) Biegen", "state": "Brandenburg", "district": "Landkreis Oder-Spree", "lat": 52.3167, "long": 14.3667}, {"postal_code": 15518, "postal_code_5": "15518", "city": "Madlitz-Wilmersdorf", "state": "Brandenburg", "district": "Landkreis Oder-Spree", "lat": 52.3881, "long": 14.263},